{
  "completed_blocks": [],
  "communities": {
    "100450513": {
      "id": 100450513,
      "name": "黄埔花园",
      "lat": "23.104947",
      "lng": "113.464111",
      "prop_num": 188,
      "build_date": "2011-07年",
      "_district": "天河",
      "_block_id": 6506,
      "_block_name": "文冲"
    },
    "100683231": {
      "id": 100683231,
      "name": "万科城市之光",
      "lat": "23.108841184125815",
      "lng": "113.47125998443751",
      "prop_num": 178,
      "build_date": "2022年",
      "_district": "天河",
      "_block_id": 6506,
      "_block_name": "文冲"
    },
    "100451155": {
      "id": 100451155,
      "name": "金碧领秀国际",
      "lat": "23.104281",
      "lng": "113.467616",
      "prop_num": 157,
      "build_date": "2007年",
      "_district": "天河",
      "_block_id": 6506,
      "_block_name": "文冲"
    },
    "100455680": {
      "id": 100455680,
      "name": "文冲安置房",
      "lat": "23.10754104707996",
      "lng": "113.47139618286282",
      "prop_num": 111,
      "build_date": "2012年",
      "_district": "天河",
      "_block_id": 6506,
      "_block_name": "文冲"
    },
    "100453172": {
      "id": 100453172,
      "name": "瑞东花园",
      "lat": "23.115809",
      "lng": "113.471777",
      "prop_num": 101,
      "build_date": "2015年",
      "_district": "天河",
      "_block_id": 6506,
      "_block_name": "文冲"
    },
    "104975796": {
      "id": 104975796,
      "name": "万科城市之光(商住楼)",
      "lat": "23.105836330800297",
      "lng": "113.47037974974235",
      "prop_num": 88,
      "build_date": "",
      "_district": "天河",
      "_block_id": 6506,
      "_block_name": "文冲"
    },
    "100450527": {
      "id": 100450527,
      "name": "黄埔雅苑",
      "lat": "23.107416",
      "lng": "113.467621",
      "prop_num": 60,
      "build_date": "2006-01年",
      "_district": "天河",
      "_block_id": 6506,
      "_block_name": "文冲"
    },
    "100453956": {
      "id": 100453956,
      "name": "怡港花园",
      "lat": "23.105254",
      "lng": "113.460752",
      "prop_num": 49,
      "build_date": "1999-02年",
      "_district": "天河",
      "_block_id": 6506,
      "_block_name": "文冲"
    },
    "100451334": {
      "id": 100451334,
      "name": "金逸雅居",
      "lat": "23.101396",
      "lng": "113.463935",
      "prop_num": 43,
      "build_date": "2006-01年",
      "_district": "天河",
      "_block_id": 6506,
      "_block_name": "文冲"
    },
    "100451247": {
      "id": 100451247,
      "name": "金丽园",
      "lat": "23.107281",
      "lng": "113.46518",
      "prop_num": 42,
      "build_date": "1997-11年",
      "_district": "天河",
      "_block_id": 6506,
      "_block_name": "文冲"
    },
    "100455285": {
      "id": 100455285,
      "name": "万科黄埔仓",
      "lat": "23.101583",
      "lng": "113.475636",
      "prop_num": 41,
      "build_date": "2016年",
      "_district": "天河",
      "_block_id": 6506,
      "_block_name": "文冲"
    },
    "100451157": {
      "id": 100451157,
      "name": "金碧世纪花园",
      "lat": "23.120357",
      "lng": "113.435795",
      "prop_num": 40,
      "build_date": "2004年",
      "_district": "天河",
      "_block_id": 6506,
      "_block_name": "文冲"
    },
    "100454316": {
      "id": 100454316,
      "name": "盈彩美居",
      "lat": "23.120614",
      "lng": "113.424727",
      "prop_num": 36,
      "build_date": "2003年",
      "_district": "天河",
      "_block_id": 6506,
      "_block_name": "文冲"
    },
    "100454706": {
      "id": 100454706,
      "name": "豫章苑",
      "lat": "23.118519",
      "lng": "113.459115",
      "prop_num": 35,
      "build_date": "1997年",
      "_district": "天河",
      "_block_id": 6506,
      "_block_name": "文冲"
    },
    "100455258": {
      "id": 100455258,
      "name": "万科城市花园",
      "lat": "23.112638",
      "lng": "113.474313",
      "prop_num": 34,
      "build_date": "2017-01年",
      "_district": "天河",
      "_block_id": 6506,
      "_block_name": "文冲"
    },
    "103976714": {
      "id": 103976714,
      "name": "鱼珠湾海丝创新中心",
      "lat": "23.108185",
      "lng": "113.430066",
      "prop_num": 31,
      "build_date": "2000年",
      "_district": "天河",
      "_block_id": 6506,
      "_block_name": "文冲"
    },
    "100455314": {
      "id": 100455314,
      "name": "万科金色悦府",
      "lat": "23.114234",
      "lng": "113.471116",
      "prop_num": 31,
      "build_date": "2014-03年",
      "_district": "天河",
      "_block_id": 6506,
      "_block_name": "文冲"
    },
    "100456142": {
      "id": 100456142,
      "name": "中鼎君和名城",
      "lat": "23.114082",
      "lng": "113.460017",
      "prop_num": 30,
      "build_date": "2015年",
      "_district": "天河",
      "_block_id": 6506,
      "_block_name": "文冲"
    },
    "100444593": {
      "id": 100444593,
      "name": "保利学府里",
      "lat": "23.108631",
      "lng": "113.44676",
      "prop_num": 30,
      "build_date": "2016年",
      "_district": "天河",
      "_block_id": 6506,
      "_block_name": "文冲"
    },
    "102455868": {
      "id": 102455868,
      "name": "江北西苑",
      "lat": "23.112632125827",
      "lng": "113.47625161666",
      "prop_num": 29,
      "build_date": "1999年",
      "_district": "天河",
      "_block_id": 6506,
      "_block_name": "文冲"
    },
    "103131327": {
      "id": 103131327,
      "name": "新溪苑小区",
      "lat": "23.110947",
      "lng": "113.463632",
      "prop_num": 23,
      "build_date": "2000年",
      "_district": "天河",
      "_block_id": 6506,
      "_block_name": "文冲"
    },
    "104948480": {
      "id": 104948480,
      "name": "中鼎珺合府(二期)",
      "lat": "23.11744",
      "lng": "113.454492",
      "prop_num": 22,
      "build_date": "",
      "_district": "天河",
      "_block_id": 6506,
      "_block_name": "文冲"
    },
    "100664904": {
      "id": 100664904,
      "name": "广州国际港航中心(一期)",
      "lat": "23.102872",
      "lng": "113.440938",
      "prop_num": 21,
      "build_date": "2019年",
      "_district": "天河",
      "_block_id": 6506,
      "_block_name": "文冲"
    },
    "103944762": {
      "id": 103944762,
      "name": "保利鱼珠港(商住楼)",
      "lat": "23.106704",
      "lng": "113.424329",
      "prop_num": 20,
      "build_date": "2019年",
      "_district": "天河",
      "_block_id": 6506,
      "_block_name": "文冲"
    },
    "100447755": {
      "id": 100447755,
      "name": "东港花园",
      "lat": "23.101192",
      "lng": "113.480803",
      "prop_num": 19,
      "build_date": "2013年",
      "_district": "天河",
      "_block_id": 6506,
      "_block_name": "文冲"
    },
    "103385578": {
      "id": 103385578,
      "name": "五矿招商鹭山府",
      "lat": "23.112495",
      "lng": "113.442608",
      "prop_num": 18,
      "build_date": "2022年",
      "_district": "天河",
      "_block_id": 6506,
      "_block_name": "文冲"
    },
    "100449177": {
      "id": 100449177,
      "name": "丰乐小区",
      "lat": "23.109032",
      "lng": "113.460863",
      "prop_num": 18,
      "build_date": "1990年",
      "_district": "天河",
      "_block_id": 6506,
      "_block_name": "文冲"
    },
    "100450525": {
      "id": 100450525,
      "name": "黄埔新村",
      "lat": "23.106878",
      "lng": "113.467494",
      "prop_num": 14,
      "build_date": "2006年",
      "_district": "天河",
      "_block_id": 6506,
      "_block_name": "文冲"
    },
    "100451263": {
      "id": 100451263,
      "name": "金隆园",
      "lat": "23.10811",
      "lng": "113.461363",
      "prop_num": 13,
      "build_date": "1999年",
      "_district": "天河",
      "_block_id": 6506,
      "_block_name": "文冲"
    },
    "100552992": {
      "id": 100552992,
      "name": "金碧领秀国际(别墅)",
      "lat": "23.104347",
      "lng": "113.467529",
      "prop_num": 13,
      "build_date": "2007年",
      "_district": "天河",
      "_block_id": 6506,
      "_block_name": "文冲"
    },
    "100454051": {
      "id": 100454051,
      "name": "怡园小区(黄埔)",
      "lat": "23.107917",
      "lng": "113.457889",
      "prop_num": 13,
      "build_date": "1992年",
      "_district": "天河",
      "_block_id": 6506,
      "_block_name": "文冲"
    },
    "100454925": {
      "id": 100454925,
      "name": "悦时代花园",
      "lat": "23.10952507933725",
      "lng": "113.4736646543238",
      "prop_num": 13,
      "build_date": "2013-11年",
      "_district": "天河",
      "_block_id": 6506,
      "_block_name": "文冲"
    },
    "100701101": {
      "id": 100701101,
      "name": "中鼎名汇",
      "lat": "23.113397",
      "lng": "113.460132",
      "prop_num": 12,
      "build_date": "2018年",
      "_district": "天河",
      "_block_id": 6506,
      "_block_name": "文冲"
    },
    "100450820": {
      "id": 100450820,
      "name": "海关小区",
      "lat": "23.10422",
      "lng": "113.468916",
      "prop_num": 12,
      "build_date": "1998年",
      "_district": "天河",
      "_block_id": 6506,
      "_block_name": "文冲"
    },
    "104916311": {
      "id": 104916311,
      "name": "临港ATM云寓",
      "lat": "23.095618",
      "lng": "113.472192",
      "prop_num": 11,
      "build_date": "",
      "_district": "天河",
      "_block_id": 6506,
      "_block_name": "文冲"
    },
    "104986334": {
      "id": 104986334,
      "name": "江贝花园",
      "lat": "23.117237556098356",
      "lng": "113.44245194085588",
      "prop_num": 11,
      "build_date": "",
      "_district": "天河",
      "_block_id": 6506,
      "_block_name": "文冲"
    },
    "100454739": {
      "id": 100454739,
      "name": "天伦东时区",
      "lat": "23.10281",
      "lng": "113.451634",
      "prop_num": 9,
      "build_date": "2009年",
      "_district": "天河",
      "_block_id": 6506,
      "_block_name": "文冲"
    },
    "103945089": {
      "id": 103945089,
      "name": "西华花园回迁房",
      "lat": "23.119198",
      "lng": "113.443335",
      "prop_num": 9,
      "build_date": "2016年",
      "_district": "天河",
      "_block_id": 6506,
      "_block_name": "文冲"
    },
    "100454929": {
      "id": 100454929,
      "name": "悦涛雅苑",
      "lat": "23.099849",
      "lng": "113.46375",
      "prop_num": 9,
      "build_date": "2000年",
      "_district": "天河",
      "_block_id": 6506,
      "_block_name": "文冲"
    },
    "100452396": {
      "id": 100452396,
      "name": "荔园小区",
      "lat": "23.104744",
      "lng": "113.452194",
      "prop_num": 8,
      "build_date": "1995年",
      "_district": "天河",
      "_block_id": 6506,
      "_block_name": "文冲"
    },
    "105105817": {
      "id": 105105817,
      "name": "保利鱼珠时光广场",
      "lat": "23.107529",
      "lng": "113.425393",
      "prop_num": 8,
      "build_date": "",
      "_district": "天河",
      "_block_id": 6506,
      "_block_name": "文冲"
    },
    "100454214": {
      "id": 100454214,
      "name": "银丰花园",
      "lat": "23.114277",
      "lng": "113.461463",
      "prop_num": 7,
      "build_date": "2009-05年",
      "_district": "天河",
      "_block_id": 6506,
      "_block_name": "文冲"
    },
    "105100484": {
      "id": 105100484,
      "name": "新溪城市花园",
      "lat": "23.108302",
      "lng": "113.463618",
      "prop_num": 6,
      "build_date": "",
      "_district": "天河",
      "_block_id": 6506,
      "_block_name": "文冲"
    },
    "100453722": {
      "id": 100453722,
      "name": "石化生活区",
      "lat": "23.110155",
      "lng": "113.477387",
      "prop_num": 6,
      "build_date": "1985年",
      "_district": "天河",
      "_block_id": 6506,
      "_block_name": "文冲"
    },
    "100449237": {
      "id": 100449237,
      "name": "丰逸尚居",
      "lat": "23.104222",
      "lng": "113.474687",
      "prop_num": 6,
      "build_date": "2012年",
      "_district": "天河",
      "_block_id": 6506,
      "_block_name": "文冲"
    },
    "105104123": {
      "id": 105104123,
      "name": "文元花园",
      "lat": "23.104666",
      "lng": "113.476521",
      "prop_num": 6,
      "build_date": "",
      "_district": "天河",
      "_block_id": 6506,
      "_block_name": "文冲"
    },
    "100450110": {
      "id": 100450110,
      "name": "港湾一村",
      "lat": "23.106484",
      "lng": "113.452368",
      "prop_num": 6,
      "build_date": "1995年",
      "_district": "天河",
      "_block_id": 6506,
      "_block_name": "文冲"
    },
    "100447509": {
      "id": 100447509,
      "name": "东城华庭",
      "lat": "23.117256",
      "lng": "113.460347",
      "prop_num": 6,
      "build_date": "2013-08年",
      "_district": "天河",
      "_block_id": 6506,
      "_block_name": "文冲"
    },
    "100446974": {
      "id": 100446974,
      "name": "大田花园",
      "lat": "23.114468",
      "lng": "113.464761",
      "prop_num": 5,
      "build_date": "2011-09年",
      "_district": "天河",
      "_block_id": 6506,
      "_block_name": "文冲"
    },
    "100450106": {
      "id": 100450106,
      "name": "港湾五村",
      "lat": "23.109161",
      "lng": "113.454972",
      "prop_num": 5,
      "build_date": "1999年",
      "_district": "天河",
      "_block_id": 6506,
      "_block_name": "文冲"
    },
    "100452916": {
      "id": 100452916,
      "name": "蟹山路小区",
      "lat": "23.103366",
      "lng": "113.444749",
      "prop_num": 5,
      "build_date": "1997年",
      "_district": "天河",
      "_block_id": 6506,
      "_block_name": "文冲"
    },
    "100454317": {
      "id": 100454317,
      "name": "泰景花园",
      "lat": "23.116151",
      "lng": "113.460997",
      "prop_num": 5,
      "build_date": "2006年",
      "_district": "天河",
      "_block_id": 6506,
      "_block_name": "文冲"
    },
    "100448418": {
      "id": 100448418,
      "name": "东苑小区(黄埔)",
      "lat": "23.113965",
      "lng": "113.45206",
      "prop_num": 5,
      "build_date": "2000-01年",
      "_district": "天河",
      "_block_id": 6506,
      "_block_name": "文冲"
    },
    "100453184": {
      "id": 100453184,
      "name": "新世纪花苑(黄埔区)",
      "lat": "23.10481543635579",
      "lng": "113.46972922148822",
      "prop_num": 4,
      "build_date": "1995年",
      "_district": "天河",
      "_block_id": 6506,
      "_block_name": "文冲"
    },
    "105090964": {
      "id": 105090964,
      "name": "丰乐中路152号大院",
      "lat": "23.111521939870666",
      "lng": "113.46077325172296",
      "prop_num": 4,
      "build_date": "",
      "_district": "天河",
      "_block_id": 6506,
      "_block_name": "文冲"
    },
    "100452370": {
      "id": 100452370,
      "name": "荔香花园",
      "lat": "23.102198",
      "lng": "113.450545",
      "prop_num": 4,
      "build_date": "1996年",
      "_district": "天河",
      "_block_id": 6506,
      "_block_name": "文冲"
    },
    "100451195": {
      "id": 100451195,
      "name": "金港华园",
      "lat": "23.102915",
      "lng": "113.451879",
      "prop_num": 3,
      "build_date": "2000-01年",
      "_district": "天河",
      "_block_id": 6506,
      "_block_name": "文冲"
    },
    "100445170": {
      "id": 100445170,
      "name": "碧兰轩",
      "lat": "23.101223",
      "lng": "113.447658",
      "prop_num": 3,
      "build_date": "2005年",
      "_district": "天河",
      "_block_id": 6506,
      "_block_name": "文冲"
    },
    "100696934": {
      "id": 100696934,
      "name": "大沙地坑头一巷-十巷小区",
      "lat": "23.11483",
      "lng": "113.449416",
      "prop_num": 3,
      "build_date": "2000年",
      "_district": "天河",
      "_block_id": 6506,
      "_block_name": "文冲"
    },
    "100708229": {
      "id": 100708229,
      "name": "南苑雅园",
      "lat": "23.10241898202112",
      "lng": "113.4781433038593",
      "prop_num": 2,
      "build_date": "2002年",
      "_district": "天河",
      "_block_id": 6506,
      "_block_name": "文冲"
    },
    "100450800": {
      "id": 100450800,
      "name": "海安社区",
      "lat": "23.105345",
      "lng": "113.475126",
      "prop_num": 2,
      "build_date": "1998年",
      "_district": "天河",
      "_block_id": 6506,
      "_block_name": "文冲"
    },
    "100451698": {
      "id": 100451698,
      "name": "骏鸿花园",
      "lat": "23.104346",
      "lng": "113.466561",
      "prop_num": 2,
      "build_date": "2005-01年",
      "_district": "天河",
      "_block_id": 6506,
      "_block_name": "文冲"
    },
    "100452942": {
      "id": 100452942,
      "name": "新安苑",
      "lat": "23.111099",
      "lng": "113.466006",
      "prop_num": 2,
      "build_date": "1998年",
      "_district": "天河",
      "_block_id": 6506,
      "_block_name": "文冲"
    },
    "100713276": {
      "id": 100713276,
      "name": "东城国际公寓",
      "lat": "23.106841",
      "lng": "113.455663",
      "prop_num": 2,
      "build_date": "2018年",
      "_district": "天河",
      "_block_id": 6506,
      "_block_name": "文冲"
    },
    "100450104": {
      "id": 100450104,
      "name": "港湾四村",
      "lat": "23.106822",
      "lng": "113.44743",
      "prop_num": 2,
      "build_date": "1991年",
      "_district": "天河",
      "_block_id": 6506,
      "_block_name": "文冲"
    },
    "100456369": {
      "id": 100456369,
      "name": "中交港湾国际",
      "lat": "23.102",
      "lng": "113.456402",
      "prop_num": 2,
      "build_date": "2015年",
      "_district": "天河",
      "_block_id": 6506,
      "_block_name": "文冲"
    },
    "100450097": {
      "id": 100450097,
      "name": "港湾路机关村",
      "lat": "23.10333",
      "lng": "113.457013",
      "prop_num": 2,
      "build_date": "2005年",
      "_district": "天河",
      "_block_id": 6506,
      "_block_name": "文冲"
    },
    "100454669": {
      "id": 100454669,
      "name": "天虹花园",
      "lat": "23.115378",
      "lng": "113.437413",
      "prop_num": 2,
      "build_date": "2006-08年",
      "_district": "天河",
      "_block_id": 6506,
      "_block_name": "文冲"
    },
    "100455689": {
      "id": 100455689,
      "name": "文冲商贸大厦",
      "lat": "23.110174",
      "lng": "113.474991",
      "prop_num": 2,
      "build_date": "1997年",
      "_district": "天河",
      "_block_id": 6506,
      "_block_name": "文冲"
    },
    "100453123": {
      "id": 100453123,
      "name": "榕景园",
      "lat": "23.103968",
      "lng": "113.470399",
      "prop_num": 2,
      "build_date": "2001-11年",
      "_district": "天河",
      "_block_id": 6506,
      "_block_name": "文冲"
    },
    "100453365": {
      "id": 100453365,
      "name": "信达大厦",
      "lat": "23.109942",
      "lng": "113.460915",
      "prop_num": 1,
      "build_date": "1999年",
      "_district": "天河",
      "_block_id": 6506,
      "_block_name": "文冲"
    },
    "103931412": {
      "id": 103931412,
      "name": "港前路387号大院",
      "lat": "23.100291",
      "lng": "113.453845",
      "prop_num": 1,
      "build_date": "1995年",
      "_district": "天河",
      "_block_id": 6506,
      "_block_name": "文冲"
    },
    "100452536": {
      "id": 100452536,
      "name": "领汇国际公寓",
      "lat": "23.118133",
      "lng": "113.4247",
      "prop_num": 1,
      "build_date": "2007-01年",
      "_district": "天河",
      "_block_id": 6506,
      "_block_name": "文冲"
    },
    "105053836": {
      "id": 105053836,
      "name": "中洲紫轩",
      "lat": "23.111071211399874",
      "lng": "113.4395909498838",
      "prop_num": 1,
      "build_date": "2025-06年",
      "_district": "天河",
      "_block_id": 6506,
      "_block_name": "文冲"
    },
    "100452773": {
      "id": 100452773,
      "name": "祥辉苑",
      "lat": "23.112642",
      "lng": "113.458729",
      "prop_num": 1,
      "build_date": "2016年",
      "_district": "天河",
      "_block_id": 6506,
      "_block_name": "文冲"
    },
    "100449305": {
      "id": 100449305,
      "name": "鹤林苑",
      "lat": "23.113251",
      "lng": "113.449874",
      "prop_num": 1,
      "build_date": "2000年",
      "_district": "天河",
      "_block_id": 6506,
      "_block_name": "文冲"
    },
    "100454156": {
      "id": 100454156,
      "name": "益庭阁",
      "lat": "23.114125",
      "lng": "113.436928",
      "prop_num": 1,
      "build_date": "1999年",
      "_district": "天河",
      "_block_id": 6506,
      "_block_name": "文冲"
    },
    "102423778": {
      "id": 102423778,
      "name": "坑头新村北自建房",
      "lat": "23.11339642617112",
      "lng": "113.4491659761108",
      "prop_num": 1,
      "build_date": "2000年",
      "_district": "天河",
      "_block_id": 6506,
      "_block_name": "文冲"
    },
    "103568685": {
      "id": 103568685,
      "name": "中国软件CBD商住楼",
      "lat": "23.114127336839903",
      "lng": "113.48488443081078",
      "prop_num": 40,
      "build_date": "",
      "_district": "天河",
      "_block_id": 6506,
      "_block_name": "文冲"
    },
    "105124262": {
      "id": 105124262,
      "name": "黄埔时尚谷",
      "lat": "23.10172956135691",
      "lng": "113.49046311078261",
      "prop_num": 24,
      "build_date": "",
      "_district": "天河",
      "_block_id": 6506,
      "_block_name": "文冲"
    },
    "105115493": {
      "id": 105115493,
      "name": "摩天工坊",
      "lat": "23.080171",
      "lng": "113.534379",
      "prop_num": 12,
      "build_date": "",
      "_district": "天河",
      "_block_id": 6506,
      "_block_name": "文冲"
    },
    "103034777": {
      "id": 103034777,
      "name": "万科尚城(商住楼)",
      "lat": "23.09978",
      "lng": "113.537545",
      "prop_num": 12,
      "build_date": "2020年",
      "_district": "天河",
      "_block_id": 6506,
      "_block_name": "文冲"
    },
    "105009736": {
      "id": 105009736,
      "name": "悦辉花园",
      "lat": "23.104949",
      "lng": "113.488117",
      "prop_num": 10,
      "build_date": "",
      "_district": "天河",
      "_block_id": 6506,
      "_block_name": "文冲"
    },
    "100455351": {
      "id": 100455351,
      "name": "万科尚城",
      "lat": "23.09929",
      "lng": "113.537575",
      "prop_num": 9,
      "build_date": "2015年",
      "_district": "天河",
      "_block_id": 6506,
      "_block_name": "文冲"
    },
    "103181503": {
      "id": 103181503,
      "name": "双岗翁裕苑",
      "lat": "23.106869",
      "lng": "113.48769",
      "prop_num": 7,
      "build_date": "2016年",
      "_district": "天河",
      "_block_id": 6506,
      "_block_name": "文冲"
    },
    "105014940": {
      "id": 105014940,
      "name": "塘头雅苑",
      "lat": "23.091977",
      "lng": "113.542184",
      "prop_num": 5,
      "build_date": "",
      "_district": "天河",
      "_block_id": 6506,
      "_block_name": "文冲"
    },
    "103232137": {
      "id": 103232137,
      "name": "越秀万力星悦峯",
      "lat": "23.089761",
      "lng": "113.510708",
      "prop_num": 2,
      "build_date": "2022年",
      "_district": "天河",
      "_block_id": 6506,
      "_block_name": "文冲"
    },
    "100695633": {
      "id": 100695633,
      "name": "夏园村",
      "lat": "23.088196",
      "lng": "113.525096",
      "prop_num": 2,
      "build_date": "2005年",
      "_district": "天河",
      "_block_id": 6506,
      "_block_name": "文冲"
    },
    "105073432": {
      "id": 105073432,
      "name": "文船生活区(西区)",
      "lat": "23.103778620877186",
      "lng": "113.48006068802563",
      "prop_num": 2,
      "build_date": "",
      "_district": "天河",
      "_block_id": 6506,
      "_block_name": "文冲"
    },
    "104956354": {
      "id": 104956354,
      "name": "卓越招商臻珑府",
      "lat": "23.092045328640832",
      "lng": "113.51065414406266",
      "prop_num": 2,
      "build_date": "",
      "_district": "天河",
      "_block_id": 6506,
      "_block_name": "文冲"
    },
    "104057767": {
      "id": 104057767,
      "name": "越秀TOD星航",
      "lat": "23.089543",
      "lng": "113.508663",
      "prop_num": 1,
      "build_date": "2023-12年",
      "_district": "天河",
      "_block_id": 6506,
      "_block_name": "文冲"
    },
    "100664918": {
      "id": 100664918,
      "name": "祥晖广场",
      "lat": "23.099484",
      "lng": "113.486595",
      "prop_num": 1,
      "build_date": "2000年",
      "_district": "天河",
      "_block_id": 6506,
      "_block_name": "文冲"
    },
    "100449896": {
      "id": 100449896,
      "name": "富力悦禧花园",
      "lat": "23.11771",
      "lng": "113.52452",
      "prop_num": 1,
      "build_date": "2018年",
      "_district": "天河",
      "_block_id": 6506,
      "_block_name": "文冲"
    },
    "105085798": {
      "id": 105085798,
      "name": "同福花园",
      "lat": "23.091146914689133",
      "lng": "113.53677357563566",
      "prop_num": 1,
      "build_date": "",
      "_district": "天河",
      "_block_id": 6506,
      "_block_name": "文冲"
    },
    "104986695": {
      "id": 104986695,
      "name": "万科黄埔新城",
      "lat": "23.09158966830129",
      "lng": "113.53851973317191",
      "prop_num": 1,
      "build_date": "2024-07年",
      "_district": "天河",
      "_block_id": 6506,
      "_block_name": "文冲"
    },
    "105115080": {
      "id": 105115080,
      "name": "沙涌长盛花园",
      "lat": "23.08895",
      "lng": "113.533625",
      "prop_num": 1,
      "build_date": "",
      "_district": "天河",
      "_block_id": 6506,
      "_block_name": "文冲"
    },
    "103275389": {
      "id": 103275389,
      "name": "保利天汇",
      "lat": "23.159602",
      "lng": "113.419603",
      "prop_num": 104,
      "build_date": "2016年",
      "_district": "天河",
      "_block_id": 2695,
      "_block_name": "东圃"
    },
    "105057431": {
      "id": 105057431,
      "name": "天河智荟",
      "lat": "23.146061190774674",
      "lng": "113.40747057649341",
      "prop_num": 64,
      "build_date": "",
      "_district": "天河",
      "_block_id": 2695,
      "_block_name": "东圃"
    },
    "100452491": {
      "id": 100452491,
      "name": "琶洲新村",
      "lat": "23.106578856235",
      "lng": "113.38923164713",
      "prop_num": 62,
      "build_date": "2005年",
      "_district": "天河",
      "_block_id": 2695,
      "_block_name": "东圃"
    },
    "100513409": {
      "id": 100513409,
      "name": "兰亭盛荟",
      "lat": "23.11931414967995",
      "lng": "113.41353544326992",
      "prop_num": 61,
      "build_date": "2021-03年",
      "_district": "天河",
      "_block_id": 2695,
      "_block_name": "东圃"
    },
    "100453850": {
      "id": 100453850,
      "name": "阳华国花苑",
      "lat": "23.144795",
      "lng": "113.399383",
      "prop_num": 53,
      "build_date": "2004-01年",
      "_district": "天河",
      "_block_id": 2695,
      "_block_name": "东圃"
    },
    "100452700": {
      "id": 100452700,
      "name": "车陂启明大街自建房",
      "lat": "23.122521",
      "lng": "113.400961",
      "prop_num": 51,
      "build_date": "2000年",
      "_district": "天河",
      "_block_id": 2695,
      "_block_name": "东圃"
    },
    "100717829": {
      "id": 100717829,
      "name": "天健汇",
      "lat": "23.14492",
      "lng": "113.402178",
      "prop_num": 47,
      "build_date": "2019年",
      "_district": "天河",
      "_block_id": 2695,
      "_block_name": "东圃"
    },
    "100454694": {
      "id": 100454694,
      "name": "天健上城",
      "lat": "23.146933",
      "lng": "113.400249",
      "prop_num": 46,
      "build_date": "2016年",
      "_district": "天河",
      "_block_id": 2695,
      "_block_name": "东圃"
    },
    "103951063": {
      "id": 103951063,
      "name": "城投珠江天河壹品",
      "lat": "23.146253",
      "lng": "113.402542",
      "prop_num": 46,
      "build_date": "2022-12年",
      "_district": "天河",
      "_block_id": 2695,
      "_block_name": "东圃"
    },
    "100696155": {
      "id": 100696155,
      "name": "车陂牛乳房一巷自建房",
      "lat": "23.124788",
      "lng": "113.399853",
      "prop_num": 43,
      "build_date": "2000年",
      "_district": "天河",
      "_block_id": 2695,
      "_block_name": "东圃"
    },
    "100548761": {
      "id": 100548761,
      "name": "保利天悦(商住楼)",
      "lat": "23.108558",
      "lng": "113.386168",
      "prop_num": 35,
      "build_date": "2018年",
      "_district": "天河",
      "_block_id": 2695,
      "_block_name": "东圃"
    },
    "100450898": {
      "id": 100450898,
      "name": "佳兆业1号",
      "lat": "23.123704",
      "lng": "113.395131",
      "prop_num": 32,
      "build_date": "2021年",
      "_district": "天河",
      "_block_id": 2695,
      "_block_name": "东圃"
    },
    "105048741": {
      "id": 105048741,
      "name": "ing未来印",
      "lat": "23.144134113578353",
      "lng": "113.40547068516393",
      "prop_num": 32,
      "build_date": "",
      "_district": "天河",
      "_block_id": 2695,
      "_block_name": "东圃"
    },
    "100455904": {
      "id": 100455904,
      "name": "五山花园",
      "lat": "23.155397",
      "lng": "113.361336",
      "prop_num": 31,
      "build_date": "1999-01年",
      "_district": "天河",
      "_block_id": 2695,
      "_block_name": "东圃"
    },
    "100451713": {
      "id": 100451713,
      "name": "骏景花园",
      "lat": "23.129086",
      "lng": "113.393061",
      "prop_num": 27,
      "build_date": "2005年",
      "_district": "天河",
      "_block_id": 2695,
      "_block_name": "东圃"
    },
    "103140238": {
      "id": 103140238,
      "name": "车陂北牧大街自建房",
      "lat": "23.124576",
      "lng": "113.401059",
      "prop_num": 22,
      "build_date": "2000年",
      "_district": "天河",
      "_block_id": 2695,
      "_block_name": "东圃"
    },
    "100449867": {
      "id": 100449867,
      "name": "富力天朗明居",
      "lat": "23.132148",
      "lng": "113.398082",
      "prop_num": 22,
      "build_date": "2002-01年",
      "_district": "天河",
      "_block_id": 2695,
      "_block_name": "东圃"
    },
    "103951062": {
      "id": 103951062,
      "name": "金地天河峯睿",
      "lat": "23.142637",
      "lng": "113.398764",
      "prop_num": 22,
      "build_date": "2022-12年",
      "_district": "天河",
      "_block_id": 2695,
      "_block_name": "东圃"
    },
    "100451819": {
      "id": 100451819,
      "name": "美林湖畔花园",
      "lat": "23.11614048657",
      "lng": "113.42063826137",
      "prop_num": 21,
      "build_date": "2004年",
      "_district": "天河",
      "_block_id": 2695,
      "_block_name": "东圃"
    },
    "105022886": {
      "id": 105022886,
      "name": "盛年华寓",
      "lat": "23.141776095662",
      "lng": "113.39777578302",
      "prop_num": 20,
      "build_date": "",
      "_district": "天河",
      "_block_id": 2695,
      "_block_name": "东圃"
    },
    "103705239": {
      "id": 103705239,
      "name": "富力天寓",
      "lat": "23.145602",
      "lng": "113.394606",
      "prop_num": 19,
      "build_date": "2021年",
      "_district": "天河",
      "_block_id": 2695,
      "_block_name": "东圃"
    },
    "100454217": {
      "id": 100454217,
      "name": "华南农业大学嵩山区",
      "lat": "23.164699",
      "lng": "113.365255",
      "prop_num": 17,
      "build_date": "1995年",
      "_district": "天河",
      "_block_id": 2695,
      "_block_name": "东圃"
    },
    "104811095": {
      "id": 104811095,
      "name": "车陂永泰直街小区",
      "lat": "23.12441027691456",
      "lng": "113.40466065155049",
      "prop_num": 15,
      "build_date": "",
      "_district": "天河",
      "_block_id": 2695,
      "_block_name": "东圃"
    },
    "100444509": {
      "id": 100444509,
      "name": "保利天悦",
      "lat": "23.109838",
      "lng": "113.386167",
      "prop_num": 12,
      "build_date": "2016年",
      "_district": "天河",
      "_block_id": 2695,
      "_block_name": "东圃"
    },
    "103254402": {
      "id": 103254402,
      "name": "保利天悦MO公寓",
      "lat": "23.105762",
      "lng": "113.384516",
      "prop_num": 12,
      "build_date": "2007年",
      "_district": "天河",
      "_block_id": 2695,
      "_block_name": "东圃"
    },
    "105053588": {
      "id": 105053588,
      "name": "珠江天郦",
      "lat": "23.13046138807666",
      "lng": "113.39583232878489",
      "prop_num": 12,
      "build_date": "",
      "_district": "天河",
      "_block_id": 2695,
      "_block_name": "东圃"
    },
    "103936267": {
      "id": 103936267,
      "name": "龙蟠花园",
      "lat": "23.118464",
      "lng": "113.391582",
      "prop_num": 11,
      "build_date": "2002年",
      "_district": "天河",
      "_block_id": 2695,
      "_block_name": "东圃"
    },
    "100444090": {
      "id": 100444090,
      "name": "半山翠庭",
      "lat": "23.153531",
      "lng": "113.361838",
      "prop_num": 10,
      "build_date": "1999年",
      "_district": "天河",
      "_block_id": 2695,
      "_block_name": "东圃"
    },
    "100450849": {
      "id": 100450849,
      "name": "加拿大花园",
      "lat": "23.142075",
      "lng": "113.374188",
      "prop_num": 10,
      "build_date": "1998-01年",
      "_district": "天河",
      "_block_id": 2695,
      "_block_name": "东圃"
    },
    "100454408": {
      "id": 100454408,
      "name": "陶然庭苑",
      "lat": "23.148169",
      "lng": "113.367725",
      "prop_num": 10,
      "build_date": "2007-12年",
      "_district": "天河",
      "_block_id": 2695,
      "_block_name": "东圃"
    },
    "104710401": {
      "id": 104710401,
      "name": "小新塘回迁房小区",
      "lat": "23.166384272729257",
      "lng": "113.41815428612558",
      "prop_num": 9,
      "build_date": "",
      "_district": "天河",
      "_block_id": 2695,
      "_block_name": "东圃"
    },
    "103121557": {
      "id": 103121557,
      "name": "车陂北牧横街小区",
      "lat": "23.12459",
      "lng": "113.400214",
      "prop_num": 9,
      "build_date": "2000年",
      "_district": "天河",
      "_block_id": 2695,
      "_block_name": "东圃"
    },
    "103001123": {
      "id": 103001123,
      "name": "联泰天河YOHO",
      "lat": "23.170055",
      "lng": "113.412133",
      "prop_num": 8,
      "build_date": "2015年",
      "_district": "天河",
      "_block_id": 2695,
      "_block_name": "东圃"
    },
    "100453598": {
      "id": 100453598,
      "name": "旭景家园",
      "lat": "23.133847",
      "lng": "113.408743",
      "prop_num": 8,
      "build_date": "2002年",
      "_district": "天河",
      "_block_id": 2695,
      "_block_name": "东圃"
    },
    "100448971": {
      "id": 100448971,
      "name": "芳满庭园",
      "lat": "23.147548",
      "lng": "113.369071",
      "prop_num": 8,
      "build_date": "2007-01年",
      "_district": "天河",
      "_block_id": 2695,
      "_block_name": "东圃"
    },
    "100451980": {
      "id": 100451980,
      "name": "明豪新村",
      "lat": "23.121757",
      "lng": "113.404033",
      "prop_num": 8,
      "build_date": "1999年",
      "_district": "天河",
      "_block_id": 2695,
      "_block_name": "东圃"
    },
    "100452129": {
      "id": 100452129,
      "name": "历徳雅舍",
      "lat": "23.139408",
      "lng": "113.373098",
      "prop_num": 8,
      "build_date": "2003年",
      "_district": "天河",
      "_block_id": 2695,
      "_block_name": "东圃"
    },
    "104010700": {
      "id": 104010700,
      "name": "保利天汇(商住楼)",
      "lat": "23.159697",
      "lng": "113.418478",
      "prop_num": 8,
      "build_date": "2022-12年",
      "_district": "天河",
      "_block_id": 2695,
      "_block_name": "东圃"
    },
    "100451805": {
      "id": 100451805,
      "name": "美林海岸花园",
      "lat": "23.119954",
      "lng": "113.379073",
      "prop_num": 7,
      "build_date": "2004-01年",
      "_district": "天河",
      "_block_id": 2695,
      "_block_name": "东圃"
    },
    "102037586": {
      "id": 102037586,
      "name": "车陂北正大街自建房",
      "lat": "23.122262",
      "lng": "113.403894",
      "prop_num": 7,
      "build_date": "1995年",
      "_district": "天河",
      "_block_id": 2695,
      "_block_name": "东圃"
    },
    "103711610": {
      "id": 103711610,
      "name": "车陂圆塘大街自建房",
      "lat": "23.123673",
      "lng": "113.400153",
      "prop_num": 7,
      "build_date": "",
      "_district": "天河",
      "_block_id": 2695,
      "_block_name": "东圃"
    },
    "103145402": {
      "id": 103145402,
      "name": "珠光金融城壹号",
      "lat": "23.110559",
      "lng": "113.419852",
      "prop_num": 7,
      "build_date": "2019年",
      "_district": "天河",
      "_block_id": 2695,
      "_block_name": "东圃"
    },
    "100450332": {
      "id": 100450332,
      "name": "广氮花园",
      "lat": "23.142126",
      "lng": "113.400849",
      "prop_num": 7,
      "build_date": "2013年",
      "_district": "天河",
      "_block_id": 2695,
      "_block_name": "东圃"
    },
    "100452110": {
      "id": 100452110,
      "name": "理想青年荟",
      "lat": "23.135126",
      "lng": "113.365701",
      "prop_num": 7,
      "build_date": "2007年",
      "_district": "天河",
      "_block_id": 2695,
      "_block_name": "东圃"
    },
    "100445639": {
      "id": 100445639,
      "name": "茶景苑",
      "lat": "23.154245",
      "lng": "113.361814",
      "prop_num": 6,
      "build_date": "1999-01年",
      "_district": "天河",
      "_block_id": 2695,
      "_block_name": "东圃"
    },
    "100454708": {
      "id": 100454708,
      "name": "天力居",
      "lat": "23.122787386086",
      "lng": "113.41051336527",
      "prop_num": 6,
      "build_date": "1998年",
      "_district": "天河",
      "_block_id": 2695,
      "_block_name": "东圃"
    },
    "104818649": {
      "id": 104818649,
      "name": "车陂永泰横街自建房",
      "lat": "23.124693112270034",
      "lng": "113.40320054577505",
      "prop_num": 6,
      "build_date": "",
      "_district": "天河",
      "_block_id": 2695,
      "_block_name": "东圃"
    },
    "105028543": {
      "id": 105028543,
      "name": "嘉禧天和",
      "lat": "23.142503270215",
      "lng": "113.41085387756",
      "prop_num": 6,
      "build_date": "",
      "_district": "天河",
      "_block_id": 2695,
      "_block_name": "东圃"
    },
    "100454865": {
      "id": 100454865,
      "name": "天雅居",
      "lat": "23.129453",
      "lng": "113.417124",
      "prop_num": 5,
      "build_date": "2018年",
      "_district": "天河",
      "_block_id": 2695,
      "_block_name": "东圃"
    },
    "100453842": {
      "id": 100453842,
      "name": "阳光桃源",
      "lat": "23.118633",
      "lng": "113.418015",
      "prop_num": 5,
      "build_date": "2012-05年",
      "_district": "天河",
      "_block_id": 2695,
      "_block_name": "东圃"
    },
    "100453836": {
      "id": 100453836,
      "name": "时尚明苑",
      "lat": "23.13151431737112",
      "lng": "113.40118038539545",
      "prop_num": 5,
      "build_date": "2006年",
      "_district": "天河",
      "_block_id": 2695,
      "_block_name": "东圃"
    },
    "100517576": {
      "id": 100517576,
      "name": "天河星作",
      "lat": "23.160819",
      "lng": "113.410294",
      "prop_num": 5,
      "build_date": "2018年",
      "_district": "天河",
      "_block_id": 2695,
      "_block_name": "东圃"
    },
    "100453189": {
      "id": 100453189,
      "name": "新世界东逸花园",
      "lat": "23.134461",
      "lng": "113.367029",
      "prop_num": 5,
      "build_date": "2006-06年",
      "_district": "天河",
      "_block_id": 2695,
      "_block_name": "东圃"
    },
    "100450335": {
      "id": 100450335,
      "name": "广氮新村",
      "lat": "23.13327",
      "lng": "113.404852",
      "prop_num": 5,
      "build_date": "1985-01年",
      "_district": "天河",
      "_block_id": 2695,
      "_block_name": "东圃"
    },
    "102034937": {
      "id": 102034937,
      "name": "仑头村环村东路小区",
      "lat": "23.086715",
      "lng": "113.38643",
      "prop_num": 5,
      "build_date": "2000年",
      "_district": "天河",
      "_block_id": 2695,
      "_block_name": "东圃"
    },
    "102010135": {
      "id": 102010135,
      "name": "赤沙高桥新苑自建房",
      "lat": "23.092653",
      "lng": "113.37163",
      "prop_num": 4,
      "build_date": "2000年",
      "_district": "天河",
      "_block_id": 2695,
      "_block_name": "东圃"
    },
    "100451821": {
      "id": 100451821,
      "name": "美林湖畔誉府",
      "lat": "23.124497",
      "lng": "113.42",
      "prop_num": 4,
      "build_date": "2013年",
      "_district": "天河",
      "_block_id": 2695,
      "_block_name": "东圃"
    },
    "100551859": {
      "id": 100551859,
      "name": "勤天E品上馆",
      "lat": "23.133719",
      "lng": "113.380616",
      "prop_num": 4,
      "build_date": "2011-12年",
      "_district": "天河",
      "_block_id": 2695,
      "_block_name": "东圃"
    },
    "104733537": {
      "id": 104733537,
      "name": "寓见里",
      "lat": "23.135858",
      "lng": "113.407512",
      "prop_num": 4,
      "build_date": "2021-06年",
      "_district": "天河",
      "_block_id": 2695,
      "_block_name": "东圃"
    },
    "100449868": {
      "id": 100449868,
      "name": "富力天禧",
      "lat": "23.134986",
      "lng": "113.40287",
      "prop_num": 4,
      "build_date": "2015年",
      "_district": "天河",
      "_block_id": 2695,
      "_block_name": "东圃"
    },
    "100456265": {
      "id": 100456265,
      "name": "中海康城花园",
      "lat": "23.139897",
      "lng": "113.408933",
      "prop_num": 4,
      "build_date": "2004年",
      "_district": "天河",
      "_block_id": 2695,
      "_block_name": "东圃"
    },
    "100692937": {
      "id": 100692937,
      "name": "保利金融大都汇",
      "lat": "23.123156",
      "lng": "113.390242",
      "prop_num": 4,
      "build_date": "2018年",
      "_district": "天河",
      "_block_id": 2695,
      "_block_name": "东圃"
    },
    "100450052": {
      "id": 100450052,
      "name": "华港花园",
      "lat": "23.138707",
      "lng": "113.363574",
      "prop_num": 4,
      "build_date": "2004-09年",
      "_district": "天河",
      "_block_id": 2695,
      "_block_name": "东圃"
    },
    "105056952": {
      "id": 105056952,
      "name": "新涌口花园",
      "lat": "23.11668077869536",
      "lng": "113.40373724755699",
      "prop_num": 4,
      "build_date": "",
      "_district": "天河",
      "_block_id": 2695,
      "_block_name": "东圃"
    },
    "104919101": {
      "id": 104919101,
      "name": "车陂南社四巷自建房",
      "lat": "23.123764",
      "lng": "113.400474",
      "prop_num": 4,
      "build_date": "",
      "_district": "天河",
      "_block_id": 2695,
      "_block_name": "东圃"
    },
    "100449531": {
      "id": 100449531,
      "name": "福金莲花园",
      "lat": "23.129801",
      "lng": "113.360623",
      "prop_num": 3,
      "build_date": "2003年",
      "_district": "天河",
      "_block_id": 2695,
      "_block_name": "东圃"
    },
    "100447483": {
      "id": 100447483,
      "name": "东成花苑",
      "lat": "23.130245",
      "lng": "113.365237",
      "prop_num": 3,
      "build_date": "2005年",
      "_district": "天河",
      "_block_id": 2695,
      "_block_name": "东圃"
    },
    "100517616": {
      "id": 100517616,
      "name": "东方都会广场",
      "lat": "23.139355",
      "lng": "113.368032",
      "prop_num": 3,
      "build_date": "2005年",
      "_district": "天河",
      "_block_id": 2695,
      "_block_name": "东圃"
    },
    "100709686": {
      "id": 100709686,
      "name": "华景里理想地公寓",
      "lat": "23.145487",
      "lng": "113.370596",
      "prop_num": 3,
      "build_date": "2016年",
      "_district": "天河",
      "_block_id": 2695,
      "_block_name": "东圃"
    },
    "100445643": {
      "id": 100445643,
      "name": "茶山小区",
      "lat": "23.157045",
      "lng": "113.363213",
      "prop_num": 3,
      "build_date": "1999年",
      "_district": "天河",
      "_block_id": 2695,
      "_block_name": "东圃"
    },
    "102346530": {
      "id": 102346530,
      "name": "龙吟大街小区",
      "lat": "23.09096",
      "lng": "113.379556",
      "prop_num": 3,
      "build_date": "2000年",
      "_district": "天河",
      "_block_id": 2695,
      "_block_name": "东圃"
    },
    "100451774": {
      "id": 100451774,
      "name": "美景花苑",
      "lat": "23.132453",
      "lng": "113.399948",
      "prop_num": 3,
      "build_date": "1998年",
      "_district": "天河",
      "_block_id": 2695,
      "_block_name": "东圃"
    },
    "100454582": {
      "id": 100454582,
      "name": "天河广场",
      "lat": "23.128526",
      "lng": "113.409073",
      "prop_num": 3,
      "build_date": "1996-01年",
      "_district": "天河",
      "_block_id": 2695,
      "_block_name": "东圃"
    },
    "100454575": {
      "id": 100454575,
      "name": "天河都市兰亭花园",
      "lat": "23.123992",
      "lng": "113.368436",
      "prop_num": 3,
      "build_date": "2004-01年",
      "_district": "天河",
      "_block_id": 2695,
      "_block_name": "东圃"
    },
    "100456859": {
      "id": 100456859,
      "name": "珠光御景骏庭",
      "lat": "23.118943",
      "lng": "113.40772",
      "prop_num": 3,
      "build_date": "2017-08年",
      "_district": "天河",
      "_block_id": 2695,
      "_block_name": "东圃"
    },
    "100455559": {
      "id": 100455559,
      "name": "伟诚广场",
      "lat": "23.128078",
      "lng": "113.373812",
      "prop_num": 3,
      "build_date": "2001-04年",
      "_district": "天河",
      "_block_id": 2695,
      "_block_name": "东圃"
    },
    "100450426": {
      "id": 100450426,
      "name": "广海花园",
      "lat": "23.133345",
      "lng": "113.379837",
      "prop_num": 3,
      "build_date": "1998-01年",
      "_district": "天河",
      "_block_id": 2695,
      "_block_name": "东圃"
    },
    "105025237": {
      "id": 105025237,
      "name": "保利天瑞",
      "lat": "23.147778853236",
      "lng": "113.37665837823",
      "prop_num": 3,
      "build_date": "2024-12年",
      "_district": "天河",
      "_block_id": 2695,
      "_block_name": "东圃"
    },
    "100453716": {
      "id": 100453716,
      "name": "雅郡花园",
      "lat": "23.098374",
      "lng": "113.393263",
      "prop_num": 3,
      "build_date": "2006年",
      "_district": "天河",
      "_block_id": 2695,
      "_block_name": "东圃"
    },
    "100450883": {
      "id": 100450883,
      "name": "佳润上品菁园",
      "lat": "23.124122",
      "lng": "113.417141",
      "prop_num": 3,
      "build_date": "2014年",
      "_district": "天河",
      "_block_id": 2695,
      "_block_name": "东圃"
    },
    "103264227": {
      "id": 103264227,
      "name": "天麟府臻林",
      "lat": "23.132239",
      "lng": "113.366728",
      "prop_num": 3,
      "build_date": "2022-04年",
      "_district": "天河",
      "_block_id": 2695,
      "_block_name": "东圃"
    },
    "100449806": {
      "id": 100449806,
      "name": "鸿运花园(天河)",
      "lat": "23.129008",
      "lng": "113.37417",
      "prop_num": 3,
      "build_date": "1998-12年",
      "_district": "天河",
      "_block_id": 2695,
      "_block_name": "东圃"
    },
    "100451825": {
      "id": 100451825,
      "name": "康乐新村(天河)",
      "lat": "23.124634",
      "lng": "113.411785",
      "prop_num": 2,
      "build_date": "2001年",
      "_district": "天河",
      "_block_id": 2695,
      "_block_name": "东圃"
    },
    "100454892": {
      "id": 100454892,
      "name": "远洋明苑",
      "lat": "23.124468601908703",
      "lng": "113.41884281275846",
      "prop_num": 2,
      "build_date": "2003-01年",
      "_district": "天河",
      "_block_id": 2695,
      "_block_name": "东圃"
    },
    "100446421": {
      "id": 100446421,
      "name": "翠湖山庄",
      "lat": "23.132623",
      "lng": "113.359614",
      "prop_num": 2,
      "build_date": "1998年",
      "_district": "天河",
      "_block_id": 2695,
      "_block_name": "东圃"
    },
    "100450248": {
      "id": 100450248,
      "name": "华南农业大学六一区教工宿舍",
      "lat": "23.165612",
      "lng": "113.360666",
      "prop_num": 2,
      "build_date": "1983年",
      "_district": "天河",
      "_block_id": 2695,
      "_block_name": "东圃"
    },
    "100448201": {
      "id": 100448201,
      "name": "东尚明苑",
      "lat": "23.136182",
      "lng": "113.408271",
      "prop_num": 2,
      "build_date": "2015-06年",
      "_district": "天河",
      "_block_id": 2695,
      "_block_name": "东圃"
    },
    "100456900": {
      "id": 100456900,
      "name": "珠江大家庭花园",
      "lat": "23.102274",
      "lng": "113.37526",
      "prop_num": 2,
      "build_date": "2003-01年",
      "_district": "天河",
      "_block_id": 2695,
      "_block_name": "东圃"
    },
    "100550085": {
      "id": 100550085,
      "name": "江山国际",
      "lat": "23.100639",
      "lng": "113.393694",
      "prop_num": 2,
      "build_date": "2010年",
      "_district": "天河",
      "_block_id": 2695,
      "_block_name": "东圃"
    },
    "104818031": {
      "id": 104818031,
      "name": "车陂龙口大街自建房",
      "lat": "23.13009079810294",
      "lng": "113.40436645649606",
      "prop_num": 2,
      "build_date": "",
      "_district": "天河",
      "_block_id": 2695,
      "_block_name": "东圃"
    },
    "100451758": {
      "id": 100451758,
      "name": "美好居",
      "lat": "23.13163",
      "lng": "113.399729",
      "prop_num": 2,
      "build_date": "1998年",
      "_district": "天河",
      "_block_id": 2695,
      "_block_name": "东圃"
    },
    "102455875": {
      "id": 102455875,
      "name": "岑村南街小区",
      "lat": "23.167210428506134",
      "lng": "113.38573434604078",
      "prop_num": 2,
      "build_date": "2000年",
      "_district": "天河",
      "_block_id": 2695,
      "_block_name": "东圃"
    },
    "100447655": {
      "id": 100447655,
      "name": "东方新世界",
      "lat": "23.13854",
      "lng": "113.366531",
      "prop_num": 2,
      "build_date": "2011年",
      "_district": "天河",
      "_block_id": 2695,
      "_block_name": "东圃"
    },
    "102385042": {
      "id": 102385042,
      "name": "岑村红花岗西街自建房",
      "lat": "23.170453699274063",
      "lng": "113.38901486210229",
      "prop_num": 2,
      "build_date": "2000年",
      "_district": "天河",
      "_block_id": 2695,
      "_block_name": "东圃"
    },
    "100451688": {
      "id": 100451688,
      "name": "隽悦园",
      "lat": "23.136822",
      "lng": "113.368043",
      "prop_num": 2,
      "build_date": "2005年",
      "_district": "天河",
      "_block_id": 2695,
      "_block_name": "东圃"
    },
    "100446560": {
      "id": 100446560,
      "name": "翠拥华庭",
      "lat": "23.133229",
      "lng": "113.400183",
      "prop_num": 2,
      "build_date": "2008-01年",
      "_district": "天河",
      "_block_id": 2695,
      "_block_name": "东圃"
    },
    "103008897": {
      "id": 103008897,
      "name": "岑村南街永福里自建房",
      "lat": "23.169219",
      "lng": "113.384216",
      "prop_num": 2,
      "build_date": "2000年",
      "_district": "天河",
      "_block_id": 2695,
      "_block_name": "东圃"
    },
    "103212959": {
      "id": 103212959,
      "name": "东圃禄东首约自建房",
      "lat": "23.120927",
      "lng": "113.408029",
      "prop_num": 2,
      "build_date": "1995年",
      "_district": "天河",
      "_block_id": 2695,
      "_block_name": "东圃"
    },
    "100453434": {
      "id": 100453434,
      "name": "汇景新城上城勋堡",
      "lat": "23.153649",
      "lng": "113.379406",
      "prop_num": 2,
      "build_date": "2008-01年",
      "_district": "天河",
      "_block_id": 2695,
      "_block_name": "东圃"
    },
    "100450606": {
      "id": 100450606,
      "name": "汇景新城棕榈园",
      "lat": "23.156029349722843",
      "lng": "113.37233533926675",
      "prop_num": 2,
      "build_date": "2004-12年",
      "_district": "天河",
      "_block_id": 2695,
      "_block_name": "东圃"
    },
    "100450600": {
      "id": 100450600,
      "name": "汇景新城世家",
      "lat": "23.154938",
      "lng": "113.379668",
      "prop_num": 2,
      "build_date": "2010-10年",
      "_district": "天河",
      "_block_id": 2695,
      "_block_name": "东圃"
    },
    "100451103": {
      "id": 100451103,
      "name": "江源半岛",
      "lat": "23.118746",
      "lng": "113.39512",
      "prop_num": 2,
      "build_date": "2011年",
      "_district": "天河",
      "_block_id": 2695,
      "_block_name": "东圃"
    },
    "100456984": {
      "id": 100456984,
      "name": "珠江俊园",
      "lat": "23.142694",
      "lng": "113.372683",
      "prop_num": 2,
      "build_date": "2004-01年",
      "_district": "天河",
      "_block_id": 2695,
      "_block_name": "东圃"
    },
    "100454683": {
      "id": 100454683,
      "name": "天荟公馆",
      "lat": "23.12894",
      "lng": "113.363204",
      "prop_num": 2,
      "build_date": "2015年",
      "_district": "天河",
      "_block_id": 2695,
      "_block_name": "东圃"
    },
    "100452887": {
      "id": 100452887,
      "name": "沁馥佳苑",
      "lat": "23.143817",
      "lng": "113.366802",
      "prop_num": 2,
      "build_date": "2007-06年",
      "_district": "天河",
      "_block_id": 2695,
      "_block_name": "东圃"
    },
    "100449036": {
      "id": 100449036,
      "name": "合生骏景广场",
      "lat": "23.131264",
      "lng": "113.388579",
      "prop_num": 2,
      "build_date": "2014年",
      "_district": "天河",
      "_block_id": 2695,
      "_block_name": "东圃"
    },
    "100456967": {
      "id": 100456967,
      "name": "珠江华景里",
      "lat": "23.146319",
      "lng": "113.37129",
      "prop_num": 2,
      "build_date": "2014-10年",
      "_district": "天河",
      "_block_id": 2695,
      "_block_name": "东圃"
    },
    "100455168": {
      "id": 100455168,
      "name": "粤和居",
      "lat": "23.131214",
      "lng": "113.37537",
      "prop_num": 2,
      "build_date": "2002年",
      "_district": "天河",
      "_block_id": 2695,
      "_block_name": "东圃"
    },
    "100447998": {
      "id": 100447998,
      "name": "东景花园",
      "lat": "23.130123",
      "lng": "113.404992",
      "prop_num": 1,
      "build_date": "2000年",
      "_district": "天河",
      "_block_id": 2695,
      "_block_name": "东圃"
    },
    "100450810": {
      "id": 100450810,
      "name": "海景中心",
      "lat": "23.129963",
      "lng": "113.3616",
      "prop_num": 1,
      "build_date": "1999年",
      "_district": "天河",
      "_block_id": 2695,
      "_block_name": "东圃"
    },
    "100443894": {
      "id": 100443894,
      "name": "百合苑(A区)",
      "lat": "23.12249",
      "lng": "113.378067",
      "prop_num": 1,
      "build_date": "1996年",
      "_district": "天河",
      "_block_id": 2695,
      "_block_name": "东圃"
    },
    "100451319": {
      "id": 100451319,
      "name": "金兴花园",
      "lat": "23.13156",
      "lng": "113.366724",
      "prop_num": 1,
      "build_date": "1996-01年",
      "_district": "天河",
      "_block_id": 2695,
      "_block_name": "东圃"
    },
    "100455667": {
      "id": 100455667,
      "name": "文昌园",
      "lat": "23.130601",
      "lng": "113.383102",
      "prop_num": 1,
      "build_date": "2000年",
      "_district": "天河",
      "_block_id": 2695,
      "_block_name": "东圃"
    },
    "100454376": {
      "id": 100454376,
      "name": "棠东丰乐路自建房",
      "lat": "23.135221",
      "lng": "113.39017",
      "prop_num": 1,
      "build_date": "1995年",
      "_district": "天河",
      "_block_id": 2695,
      "_block_name": "东圃"
    },
    "100451813": {
      "id": 100451813,
      "name": "康湖山庄",
      "lat": "23.127403425057825",
      "lng": "113.36499862585423",
      "prop_num": 1,
      "build_date": "1997-01年",
      "_district": "天河",
      "_block_id": 2695,
      "_block_name": "东圃"
    },
    "100453602": {
      "id": 100453602,
      "name": "旭日雅苑幸福里",
      "lat": "23.124943",
      "lng": "113.364536",
      "prop_num": 1,
      "build_date": "2014年",
      "_district": "天河",
      "_block_id": 2695,
      "_block_name": "东圃"
    },
    "100451811": {
      "id": 100451811,
      "name": "美林海岸花园逸江湾",
      "lat": "23.117865",
      "lng": "113.379632",
      "prop_num": 1,
      "build_date": "2005年",
      "_district": "天河",
      "_block_id": 2695,
      "_block_name": "东圃"
    },
    "100454874": {
      "id": 100454874,
      "name": "天一庄",
      "lat": "23.127910468745107",
      "lng": "113.3641758364644",
      "prop_num": 1,
      "build_date": "2006年",
      "_district": "天河",
      "_block_id": 2695,
      "_block_name": "东圃"
    },
    "100450253": {
      "id": 100450253,
      "name": "华南师范大学教师新村",
      "lat": "23.143388261821283",
      "lng": "113.36250717024487",
      "prop_num": 1,
      "build_date": "2000年",
      "_district": "天河",
      "_block_id": 2695,
      "_block_name": "东圃"
    },
    "100447949": {
      "id": 100447949,
      "name": "东晖花园",
      "lat": "23.135556",
      "lng": "113.368187",
      "prop_num": 1,
      "build_date": "1999年",
      "_district": "天河",
      "_block_id": 2695,
      "_block_name": "东圃"
    },
    "100453835": {
      "id": 100453835,
      "name": "阳光假日园",
      "lat": "23.134615",
      "lng": "113.398061",
      "prop_num": 1,
      "build_date": "2010年",
      "_district": "天河",
      "_block_id": 2695,
      "_block_name": "东圃"
    },
    "102356256": {
      "id": 102356256,
      "name": "黄村北环路自建房",
      "lat": "23.133391107427",
      "lng": "113.41853873893",
      "prop_num": 1,
      "build_date": "2000年",
      "_district": "天河",
      "_block_id": 2695,
      "_block_name": "东圃"
    },
    "103141732": {
      "id": 103141732,
      "name": "车陂东溪大街自建房",
      "lat": "23.126889706564008",
      "lng": "113.40236930362184",
      "prop_num": 1,
      "build_date": "2002年",
      "_district": "天河",
      "_block_id": 2695,
      "_block_name": "东圃"
    },
    "103131500": {
      "id": 103131500,
      "name": "棠下穗南新村",
      "lat": "23.134875",
      "lng": "113.383354",
      "prop_num": 1,
      "build_date": "2000年",
      "_district": "天河",
      "_block_id": 2695,
      "_block_name": "东圃"
    },
    "100454321": {
      "id": 100454321,
      "name": "泰然楼",
      "lat": "23.130841",
      "lng": "113.365144",
      "prop_num": 1,
      "build_date": "2000年",
      "_district": "天河",
      "_block_id": 2695,
      "_block_name": "东圃"
    },
    "100454833": {
      "id": 100454833,
      "name": "员村新村",
      "lat": "23.126839",
      "lng": "113.368421",
      "prop_num": 1,
      "build_date": "1996年",
      "_district": "天河",
      "_block_id": 2695,
      "_block_name": "东圃"
    },
    "100453809": {
      "id": 100453809,
      "name": "羊城花园",
      "lat": "23.12505",
      "lng": "113.417687",
      "prop_num": 1,
      "build_date": "1999-05年",
      "_district": "天河",
      "_block_id": 2695,
      "_block_name": "东圃"
    },
    "100450472": {
      "id": 100450472,
      "name": "广厦居小区",
      "lat": "23.127475",
      "lng": "113.376571",
      "prop_num": 1,
      "build_date": "1997年",
      "_district": "天河",
      "_block_id": 2695,
      "_block_name": "东圃"
    },
    "104897045": {
      "id": 104897045,
      "name": "车陂水上新村涌边街自建房",
      "lat": "23.119501",
      "lng": "113.405146",
      "prop_num": 1,
      "build_date": "",
      "_district": "天河",
      "_block_id": 2695,
      "_block_name": "东圃"
    },
    "100454310": {
      "id": 100454310,
      "name": "迎海花园",
      "lat": "23.130306",
      "lng": "113.411763",
      "prop_num": 1,
      "build_date": "2000年",
      "_district": "天河",
      "_block_id": 2695,
      "_block_name": "东圃"
    },
    "100456077": {
      "id": 100456077,
      "name": "智景花苑",
      "lat": "23.135371",
      "lng": "113.40205",
      "prop_num": 1,
      "build_date": "2000年",
      "_district": "天河",
      "_block_id": 2695,
      "_block_name": "东圃"
    },
    "105092916": {
      "id": 105092916,
      "name": "江夏南二巷16号",
      "lat": "23.121012174270177",
      "lng": "113.403062100241",
      "prop_num": 1,
      "build_date": "",
      "_district": "天河",
      "_block_id": 2695,
      "_block_name": "东圃"
    },
    "100450686": {
      "id": 100450686,
      "name": "会展世界城",
      "lat": "23.102184",
      "lng": "113.391991",
      "prop_num": 1,
      "build_date": "2014-12年",
      "_district": "天河",
      "_block_id": 2695,
      "_block_name": "东圃"
    },
    "100454782": {
      "id": 100454782,
      "name": "员村公安宿舍",
      "lat": "23.12315",
      "lng": "113.378903",
      "prop_num": 1,
      "build_date": "1998年",
      "_district": "天河",
      "_block_id": 2695,
      "_block_name": "东圃"
    },
    "100453750": {
      "id": 100453750,
      "name": "雅怡居",
      "lat": "23.124918",
      "lng": "113.408959",
      "prop_num": 1,
      "build_date": "2000-01年",
      "_district": "天河",
      "_block_id": 2695,
      "_block_name": "东圃"
    },
    "100450674": {
      "id": 100450674,
      "name": "汇友苑",
      "lat": "23.123946",
      "lng": "113.408298",
      "prop_num": 1,
      "build_date": "2002年",
      "_district": "天河",
      "_block_id": 2695,
      "_block_name": "东圃"
    },
    "100454504": {
      "id": 100454504,
      "name": "天成居",
      "lat": "23.121313",
      "lng": "113.396927",
      "prop_num": 1,
      "build_date": "2000年",
      "_district": "天河",
      "_block_id": 2695,
      "_block_name": "东圃"
    },
    "103109299": {
      "id": 103109299,
      "name": "宦溪石宦路小区",
      "lat": "23.119976",
      "lng": "113.414931",
      "prop_num": 1,
      "build_date": "2000年",
      "_district": "天河",
      "_block_id": 2695,
      "_block_name": "东圃"
    },
    "100445533": {
      "id": 100445533,
      "name": "蚕种所宿舍",
      "lat": "23.152774",
      "lng": "113.368563",
      "prop_num": 1,
      "build_date": "2001年",
      "_district": "天河",
      "_block_id": 2695,
      "_block_name": "东圃"
    },
    "100446043": {
      "id": 100446043,
      "name": "城市假日园",
      "lat": "23.131553",
      "lng": "113.410329",
      "prop_num": 1,
      "build_date": "2006-01年",
      "_district": "天河",
      "_block_id": 2695,
      "_block_name": "东圃"
    },
    "104825232": {
      "id": 104825232,
      "name": "黄村中心街自建房",
      "lat": "23.131368981541716",
      "lng": "113.41902895834728",
      "prop_num": 1,
      "build_date": "",
      "_district": "天河",
      "_block_id": 2695,
      "_block_name": "东圃"
    },
    "100449870": {
      "id": 100449870,
      "name": "富力万科云启",
      "lat": "23.136733",
      "lng": "113.404686",
      "prop_num": 1,
      "build_date": "2018-03年",
      "_district": "天河",
      "_block_id": 2695,
      "_block_name": "东圃"
    },
    "100452425": {
      "id": 100452425,
      "name": "农科院东区",
      "lat": "23.15471",
      "lng": "113.364362",
      "prop_num": 1,
      "build_date": "2000年",
      "_district": "天河",
      "_block_id": 2695,
      "_block_name": "东圃"
    },
    "100455237": {
      "id": 100455237,
      "name": "粤韵庭园",
      "lat": "23.127985",
      "lng": "113.375124",
      "prop_num": 1,
      "build_date": "2002-01年",
      "_district": "天河",
      "_block_id": 2695,
      "_block_name": "东圃"
    },
    "100449336": {
      "id": 100449336,
      "name": "恒安大厦",
      "lat": "23.129498",
      "lng": "113.36424",
      "prop_num": 1,
      "build_date": "1998年",
      "_district": "天河",
      "_block_id": 2695,
      "_block_name": "东圃"
    },
    "104979597": {
      "id": 104979597,
      "name": "盛韵苑",
      "lat": "23.099039",
      "lng": "113.380782",
      "prop_num": 1,
      "build_date": "",
      "_district": "天河",
      "_block_id": 2695,
      "_block_name": "东圃"
    },
    "100450599": {
      "id": 100450599,
      "name": "汇景新城上城峰境",
      "lat": "23.155398",
      "lng": "113.374487",
      "prop_num": 1,
      "build_date": "2005-01年",
      "_district": "天河",
      "_block_id": 2695,
      "_block_name": "东圃"
    },
    "103135737": {
      "id": 103135737,
      "name": "车陂坑边大街自建房",
      "lat": "23.123914",
      "lng": "113.402609",
      "prop_num": 1,
      "build_date": "2000年",
      "_district": "天河",
      "_block_id": 2695,
      "_block_name": "东圃"
    },
    "104817628": {
      "id": 104817628,
      "name": "明珠街自建房",
      "lat": "23.121326468281605",
      "lng": "113.4051069297277",
      "prop_num": 1,
      "build_date": "",
      "_district": "天河",
      "_block_id": 2695,
      "_block_name": "东圃"
    },
    "102455807": {
      "id": 102455807,
      "name": "金辉苑",
      "lat": "23.134220077083192",
      "lng": "113.38370578637924",
      "prop_num": 1,
      "build_date": "1998年",
      "_district": "天河",
      "_block_id": 2695,
      "_block_name": "东圃"
    },
    "100702440": {
      "id": 100702440,
      "name": "新港东路2478号小区",
      "lat": "23.098571",
      "lng": "113.408927",
      "prop_num": 1,
      "build_date": "",
      "_district": "天河",
      "_block_id": 2695,
      "_block_name": "东圃"
    },
    "100449815": {
      "id": 100449815,
      "name": "厚和大厦",
      "lat": "23.13118",
      "lng": "113.400772",
      "prop_num": 1,
      "build_date": "2013年",
      "_district": "天河",
      "_block_id": 2695,
      "_block_name": "东圃"
    },
    "105031340": {
      "id": 105031340,
      "name": "保利海珠天珺",
      "lat": "23.101294236585",
      "lng": "113.40655083471",
      "prop_num": 1,
      "build_date": "2025-02年",
      "_district": "天河",
      "_block_id": 2695,
      "_block_name": "东圃"
    },
    "100452620": {
      "id": 100452620,
      "name": "喜洋居",
      "lat": "23.137594",
      "lng": "113.376022",
      "prop_num": 1,
      "build_date": "2006年",
      "_district": "天河",
      "_block_id": 2695,
      "_block_name": "东圃"
    },
    "100452109": {
      "id": 100452109,
      "name": "理想蓝堡国际花园",
      "lat": "23.133787",
      "lng": "113.364095",
      "prop_num": 1,
      "build_date": "2004-05年",
      "_district": "天河",
      "_block_id": 2695,
      "_block_name": "东圃"
    },
    "100448009": {
      "id": 100448009,
      "name": "东璟花园",
      "lat": "23.128270593115",
      "lng": "113.36811644578",
      "prop_num": 1,
      "build_date": "2004年",
      "_district": "天河",
      "_block_id": 2695,
      "_block_name": "东圃"
    },
    "100455943": {
      "id": 100455943,
      "name": "五山税务局宿舍",
      "lat": "23.155787",
      "lng": "113.360964",
      "prop_num": 1,
      "build_date": "2000-01年",
      "_district": "天河",
      "_block_id": 2695,
      "_block_name": "东圃"
    },
    "100453378": {
      "id": 100453378,
      "name": "信华经理人花园",
      "lat": "23.145472",
      "lng": "113.372291",
      "prop_num": 1,
      "build_date": "2004年",
      "_district": "天河",
      "_block_id": 2695,
      "_block_name": "东圃"
    },
    "100452356": {
      "id": 100452356,
      "name": "南悦楼",
      "lat": "23.123241",
      "lng": "113.40015",
      "prop_num": 1,
      "build_date": "2010年",
      "_district": "天河",
      "_block_id": 2695,
      "_block_name": "东圃"
    },
    "104811096": {
      "id": 104811096,
      "name": "东圃陂东路自建房",
      "lat": "23.122993118535703",
      "lng": "113.40663864914681",
      "prop_num": 20,
      "build_date": "",
      "_district": "天河",
      "_block_id": 2695,
      "_block_name": "东圃"
    },
    "104917229": {
      "id": 104917229,
      "name": "东圃大马路自建房",
      "lat": "23.122231",
      "lng": "113.405814",
      "prop_num": 18,
      "build_date": "",
      "_district": "天河",
      "_block_id": 2695,
      "_block_name": "东圃"
    },
    "103110687": {
      "id": 103110687,
      "name": "东圃二横路小区",
      "lat": "23.124703",
      "lng": "113.409854",
      "prop_num": 17,
      "build_date": "2000年",
      "_district": "天河",
      "_block_id": 2695,
      "_block_name": "东圃"
    },
    "102356254": {
      "id": 102356254,
      "name": "车陂东闸口大街自建房",
      "lat": "23.124726918246",
      "lng": "113.40495176101",
      "prop_num": 5,
      "build_date": "1995年",
      "_district": "天河",
      "_block_id": 2695,
      "_block_name": "东圃"
    },
    "100451951": {
      "id": 100451951,
      "name": "名圃花园",
      "lat": "23.12494474394036",
      "lng": "113.41189615154389",
      "prop_num": 3,
      "build_date": "2006年",
      "_district": "天河",
      "_block_id": 2695,
      "_block_name": "东圃"
    },
    "100448109": {
      "id": 100448109,
      "name": "东圃法院宿舍",
      "lat": "23.121682",
      "lng": "113.4107",
      "prop_num": 2,
      "build_date": "1999-05年",
      "_district": "天河",
      "_block_id": 2695,
      "_block_name": "东圃"
    },
    "104057696": {
      "id": 104057696,
      "name": "康乐新村自建房",
      "lat": "23.124124",
      "lng": "113.411511",
      "prop_num": 1,
      "build_date": "",
      "_district": "天河",
      "_block_id": 2695,
      "_block_name": "东圃"
    },
    "103196509": {
      "id": 103196509,
      "name": "齐森商务大厦",
      "lat": "23.122886",
      "lng": "113.408683",
      "prop_num": 1,
      "build_date": "",
      "_district": "天河",
      "_block_id": 2695,
      "_block_name": "东圃"
    },
    "102356301": {
      "id": 102356301,
      "name": "隔塘街自建房",
      "lat": "23.121829",
      "lng": "113.415714",
      "prop_num": 23,
      "build_date": "2002年",
      "_district": "天河",
      "_block_id": 2695,
      "_block_name": "东圃"
    },
    "102022748": {
      "id": 102022748,
      "name": "宦溪北边街自建房",
      "lat": "23.122549",
      "lng": "113.41579",
      "prop_num": 15,
      "build_date": "2002年",
      "_district": "天河",
      "_block_id": 2695,
      "_block_name": "东圃"
    },
    "100715382": {
      "id": 100715382,
      "name": "宦溪西路小区",
      "lat": "23.122374",
      "lng": "113.413451",
      "prop_num": 8,
      "build_date": "2008年",
      "_district": "天河",
      "_block_id": 2695,
      "_block_name": "东圃"
    },
    "100447945": {
      "id": 100447945,
      "name": "东环新村",
      "lat": "23.122063",
      "lng": "113.414085",
      "prop_num": 1,
      "build_date": "2004-01年",
      "_district": "天河",
      "_block_id": 2695,
      "_block_name": "东圃"
    },
    "103108858": {
      "id": 103108858,
      "name": "佳和新居(宦溪北路)",
      "lat": "23.1224775571067",
      "lng": "113.4147525489777",
      "prop_num": 1,
      "build_date": "2015年",
      "_district": "天河",
      "_block_id": 2695,
      "_block_name": "东圃"
    },
    "103105354": {
      "id": 103105354,
      "name": "车陂大塘街自建房",
      "lat": "23.127448",
      "lng": "113.401166",
      "prop_num": 61,
      "build_date": "2000年",
      "_district": "天河",
      "_block_id": 2695,
      "_block_name": "东圃"
    },
    "100710140": {
      "id": 100710140,
      "name": "车陂北门大街自建房",
      "lat": "23.128768",
      "lng": "113.40086",
      "prop_num": 30,
      "build_date": "2000年",
      "_district": "天河",
      "_block_id": 2695,
      "_block_name": "东圃"
    },
    "103120710": {
      "id": 103120710,
      "name": "车陂隆兴公大街自建房",
      "lat": "23.12649842006447",
      "lng": "113.39900972658319",
      "prop_num": 17,
      "build_date": "2000年",
      "_district": "天河",
      "_block_id": 2695,
      "_block_name": "东圃"
    },
    "103125746": {
      "id": 103125746,
      "name": "车陂西华大街自建房",
      "lat": "23.129354",
      "lng": "113.400457",
      "prop_num": 12,
      "build_date": "2000年",
      "_district": "天河",
      "_block_id": 2695,
      "_block_name": "东圃"
    },
    "104823044": {
      "id": 104823044,
      "name": "车陂祠堂大街自建房",
      "lat": "23.127142",
      "lng": "113.404654",
      "prop_num": 10,
      "build_date": "",
      "_district": "天河",
      "_block_id": 2695,
      "_block_name": "东圃"
    },
    "102356270": {
      "id": 102356270,
      "name": "车陂西华新村北街自建房",
      "lat": "23.126720674987343",
      "lng": "113.3984763718107",
      "prop_num": 9,
      "build_date": "2000年",
      "_district": "天河",
      "_block_id": 2695,
      "_block_name": "东圃"
    },
    "104921108": {
      "id": 104921108,
      "name": "车陂祠前大街自建房",
      "lat": "23.125455",
      "lng": "113.402177",
      "prop_num": 6,
      "build_date": "",
      "_district": "天河",
      "_block_id": 2695,
      "_block_name": "东圃"
    },
    "103131410": {
      "id": 103131410,
      "name": "车陂村",
      "lat": "23.126122",
      "lng": "113.402205",
      "prop_num": 6,
      "build_date": "2003年",
      "_district": "天河",
      "_block_id": 2695,
      "_block_name": "东圃"
    },
    "102356279": {
      "id": 102356279,
      "name": "车陂牛乳房二巷自建房",
      "lat": "23.126404849488",
      "lng": "113.39953407909",
      "prop_num": 5,
      "build_date": "2000年",
      "_district": "天河",
      "_block_id": 2695,
      "_block_name": "东圃"
    },
    "104818216": {
      "id": 104818216,
      "name": "车陂东岸黎头街自建房",
      "lat": "23.126326",
      "lng": "113.404136",
      "prop_num": 4,
      "build_date": "",
      "_district": "天河",
      "_block_id": 2695,
      "_block_name": "东圃"
    },
    "103168622": {
      "id": 103168622,
      "name": "车陂清溪大街自建房",
      "lat": "23.125919",
      "lng": "113.401268",
      "prop_num": 3,
      "build_date": "2000年",
      "_district": "天河",
      "_block_id": 2695,
      "_block_name": "东圃"
    },
    "100710723": {
      "id": 100710723,
      "name": "车陂太原里大街自建房",
      "lat": "23.127261",
      "lng": "113.404508",
      "prop_num": 2,
      "build_date": "2000年",
      "_district": "天河",
      "_block_id": 2695,
      "_block_name": "东圃"
    },
    "100445878": {
      "id": 100445878,
      "name": "车陂西华花园",
      "lat": "23.128115",
      "lng": "113.39895",
      "prop_num": 1,
      "build_date": "2000年",
      "_district": "天河",
      "_block_id": 2695,
      "_block_name": "东圃"
    },
    "103930341": {
      "id": 103930341,
      "name": "车陂天台大街自建房",
      "lat": "23.126142",
      "lng": "113.403972",
      "prop_num": 1,
      "build_date": "",
      "_district": "天河",
      "_block_id": 2695,
      "_block_name": "东圃"
    },
    "100454921": {
      "id": 100454921,
      "name": "悦盛苑",
      "lat": "23.128078",
      "lng": "113.40448",
      "prop_num": 1,
      "build_date": "1999年",
      "_district": "天河",
      "_block_id": 2695,
      "_block_name": "东圃"
    },
    "100448122": {
      "id": 100448122,
      "name": "东圃广场",
      "lat": "23.129069286305512",
      "lng": "113.41227275053441",
      "prop_num": 27,
      "build_date": "1999-01年",
      "_district": "天河",
      "_block_id": 2695,
      "_block_name": "东圃"
    },
    "100453743": {
      "id": 100453743,
      "name": "雅怡阁",
      "lat": "23.126802",
      "lng": "113.409848",
      "prop_num": 21,
      "build_date": "2000-01年",
      "_district": "天河",
      "_block_id": 2695,
      "_block_name": "东圃"
    },
    "100452152": {
      "id": 100452152,
      "name": "南国嘉园苹果城",
      "lat": "23.129259",
      "lng": "113.408295",
      "prop_num": 15,
      "build_date": "2003-01年",
      "_district": "天河",
      "_block_id": 2695,
      "_block_name": "东圃"
    },
    "104823045": {
      "id": 104823045,
      "name": "车陂玉田大街自建房",
      "lat": "23.12546608725248",
      "lng": "113.40519424502324",
      "prop_num": 10,
      "build_date": "",
      "_district": "天河",
      "_block_id": 2695,
      "_block_name": "东圃"
    },
    "100449791": {
      "id": 100449791,
      "name": "富康新村",
      "lat": "23.126271",
      "lng": "113.406363",
      "prop_num": 6,
      "build_date": "1998-01年",
      "_district": "天河",
      "_block_id": 2695,
      "_block_name": "东圃"
    },
    "103120717": {
      "id": 103120717,
      "name": "车陂三槐里小区",
      "lat": "23.125602",
      "lng": "113.405444",
      "prop_num": 6,
      "build_date": "2000年",
      "_district": "天河",
      "_block_id": 2695,
      "_block_name": "东圃"
    },
    "100707140": {
      "id": 100707140,
      "name": "石灰厂路自建房",
      "lat": "23.127831527880687",
      "lng": "113.40490416540662",
      "prop_num": 4,
      "build_date": "2000年",
      "_district": "天河",
      "_block_id": 2695,
      "_block_name": "东圃"
    },
    "100449875": {
      "id": 100449875,
      "name": "富力新村",
      "lat": "23.125993",
      "lng": "113.410573",
      "prop_num": 2,
      "build_date": "1998年",
      "_district": "天河",
      "_block_id": 2695,
      "_block_name": "东圃"
    },
    "100517620": {
      "id": 100517620,
      "name": "东圃中学宿舍",
      "lat": "23.129419",
      "lng": "113.410414",
      "prop_num": 1,
      "build_date": "1998-06年",
      "_district": "天河",
      "_block_id": 2695,
      "_block_name": "东圃"
    },
    "100447873": {
      "id": 100447873,
      "name": "东华居",
      "lat": "23.127338",
      "lng": "113.409461",
      "prop_num": 1,
      "build_date": "2000-01年",
      "_district": "天河",
      "_block_id": 2695,
      "_block_name": "东圃"
    },
    "104911623": {
      "id": 104911623,
      "name": "黄村石桥头下一巷-九巷自建房",
      "lat": "23.129044164073182",
      "lng": "113.41869308191721",
      "prop_num": 5,
      "build_date": "",
      "_district": "天河",
      "_block_id": 2695,
      "_block_name": "东圃"
    },
    "100451435": {
      "id": 100451435,
      "name": "龙怡苑",
      "lat": "23.126816",
      "lng": "113.416552",
      "prop_num": 3,
      "build_date": "2004年",
      "_district": "天河",
      "_block_id": 2695,
      "_block_name": "东圃"
    },
    "102000269": {
      "id": 102000269,
      "name": "黄村南路自建房",
      "lat": "23.129016",
      "lng": "113.419762",
      "prop_num": 3,
      "build_date": "2000年",
      "_district": "天河",
      "_block_id": 2695,
      "_block_name": "东圃"
    },
    "102310893": {
      "id": 102310893,
      "name": "龙步西街横二巷-五巷小区",
      "lat": "23.127453",
      "lng": "113.416891",
      "prop_num": 2,
      "build_date": "2003年",
      "_district": "天河",
      "_block_id": 2695,
      "_block_name": "东圃"
    },
    "103120297": {
      "id": 103120297,
      "name": "龙步大街自建房",
      "lat": "23.126771408724125",
      "lng": "113.41757090100944",
      "prop_num": 1,
      "build_date": "2002年",
      "_district": "天河",
      "_block_id": 2695,
      "_block_name": "东圃"
    },
    "103985047": {
      "id": 103985047,
      "name": "车陂高地大街小区",
      "lat": "23.130131",
      "lng": "113.403785",
      "prop_num": 43,
      "build_date": "",
      "_district": "天河",
      "_block_id": 2695,
      "_block_name": "东圃"
    },
    "103005125": {
      "id": 103005125,
      "name": "车陂北街自建房",
      "lat": "23.13277",
      "lng": "113.403066",
      "prop_num": 9,
      "build_date": "1995年",
      "_district": "天河",
      "_block_id": 2695,
      "_block_name": "东圃"
    },
    "100450741": {
      "id": 100450741,
      "name": "惠苑楼(天河)",
      "lat": "23.131834",
      "lng": "113.403729",
      "prop_num": 4,
      "build_date": "2000-01年",
      "_district": "天河",
      "_block_id": 2695,
      "_block_name": "东圃"
    },
    "100448135": {
      "id": 100448135,
      "name": "东圃远洋宿舍",
      "lat": "23.131883",
      "lng": "113.411845",
      "prop_num": 4,
      "build_date": "1997-03年",
      "_district": "天河",
      "_block_id": 2695,
      "_block_name": "东圃"
    },
    "100457057": {
      "id": 100457057,
      "name": "珠江旭景熙苑",
      "lat": "23.132875",
      "lng": "113.40861",
      "prop_num": 4,
      "build_date": "2004年",
      "_district": "天河",
      "_block_id": 2695,
      "_block_name": "东圃"
    },
    "100453909": {
      "id": 100453909,
      "name": "一汽宿舍",
      "lat": "23.133653",
      "lng": "113.410622",
      "prop_num": 1,
      "build_date": "2001年",
      "_district": "天河",
      "_block_id": 2695,
      "_block_name": "东圃"
    },
    "102373360": {
      "id": 102373360,
      "name": "中山大道中267号住宅楼",
      "lat": "23.13011755058364",
      "lng": "113.40917459636043",
      "prop_num": 1,
      "build_date": "2000年",
      "_district": "天河",
      "_block_id": 2695,
      "_block_name": "东圃"
    },
    "104923391": {
      "id": 104923391,
      "name": "荔苑路自建房",
      "lat": "23.132834",
      "lng": "113.416821",
      "prop_num": 35,
      "build_date": "",
      "_district": "天河",
      "_block_id": 2695,
      "_block_name": "东圃"
    },
    "103109300": {
      "id": 103109300,
      "name": "黄村石桥头上一巷-九巷自建房",
      "lat": "23.130285",
      "lng": "113.418452",
      "prop_num": 22,
      "build_date": "2000年",
      "_district": "天河",
      "_block_id": 2695,
      "_block_name": "东圃"
    },
    "102356275": {
      "id": 102356275,
      "name": "黄村北便新街自建房",
      "lat": "23.132391481775",
      "lng": "113.41850685308",
      "prop_num": 14,
      "build_date": "2000年",
      "_district": "天河",
      "_block_id": 2695,
      "_block_name": "东圃"
    },
    "103120704": {
      "id": 103120704,
      "name": "黄村西华里自建房",
      "lat": "23.130895720866",
      "lng": "113.41829978411",
      "prop_num": 9,
      "build_date": "2002年",
      "_district": "天河",
      "_block_id": 2695,
      "_block_name": "东圃"
    },
    "100711435": {
      "id": 100711435,
      "name": "黄村永泰里自建房",
      "lat": "23.132601705679402",
      "lng": "113.419369505966",
      "prop_num": 3,
      "build_date": "2000年",
      "_district": "天河",
      "_block_id": 2695,
      "_block_name": "东圃"
    },
    "103375964": {
      "id": 103375964,
      "name": "黄村连溪里大街自建房",
      "lat": "23.130626515156",
      "lng": "113.41916374122",
      "prop_num": 1,
      "build_date": "",
      "_district": "天河",
      "_block_id": 2695,
      "_block_name": "东圃"
    },
    "105127000": {
      "id": 105127000,
      "name": "福元中路自建房",
      "lat": "23.13183825184275",
      "lng": "113.41477799701434",
      "prop_num": 1,
      "build_date": "",
      "_district": "天河",
      "_block_id": 2695,
      "_block_name": "东圃"
    },
    "105127591": {
      "id": 105127591,
      "name": "港湾创意园",
      "lat": "23.105276",
      "lng": "113.453862",
      "prop_num": 3,
      "build_date": "",
      "_district": "天河",
      "_block_id": 15596,
      "_block_name": "大沙地"
    },
    "100455864": {
      "id": 100455864,
      "name": "珍宝大厦(黄埔)",
      "lat": "23.105398",
      "lng": "113.451812",
      "prop_num": 2,
      "build_date": "2002年",
      "_district": "天河",
      "_block_id": 15596,
      "_block_name": "大沙地"
    },
    "100452315": {
      "id": 100452315,
      "name": "荔景园(黄埔)",
      "lat": "23.105016",
      "lng": "113.453538",
      "prop_num": 1,
      "build_date": "1999年",
      "_district": "天河",
      "_block_id": 15596,
      "_block_name": "大沙地"
    },
    "104820064": {
      "id": 104820064,
      "name": "大沙地顶岗上街自建房",
      "lat": "23.111488112881087",
      "lng": "113.44695125799636",
      "prop_num": 9,
      "build_date": "",
      "_district": "天河",
      "_block_id": 15596,
      "_block_name": "大沙地"
    },
    "100453220": {
      "id": 100453220,
      "name": "三村远洋小区",
      "lat": "23.110765",
      "lng": "113.44961",
      "prop_num": 8,
      "build_date": "1999-01年",
      "_district": "天河",
      "_block_id": 15596,
      "_block_name": "大沙地"
    },
    "104601834": {
      "id": 104601834,
      "name": "港湾西三街148号大院",
      "lat": "23.109846",
      "lng": "113.449153",
      "prop_num": 1,
      "build_date": "",
      "_district": "天河",
      "_block_id": 15596,
      "_block_name": "大沙地"
    },
    "105100431": {
      "id": 105100431,
      "name": "大沙地东路1-3号楼",
      "lat": "23.11034120921449",
      "lng": "113.45374729849928",
      "prop_num": 69,
      "build_date": "",
      "_district": "天河",
      "_block_id": 15596,
      "_block_name": "大沙地"
    },
    "102095406": {
      "id": 102095406,
      "name": "大沙地东路41号小区",
      "lat": "23.11088",
      "lng": "113.455519",
      "prop_num": 6,
      "build_date": "2002年",
      "_district": "天河",
      "_block_id": 15596,
      "_block_name": "大沙地"
    },
    "100450102": {
      "id": 100450102,
      "name": "港湾三村",
      "lat": "23.110458",
      "lng": "113.450589",
      "prop_num": 5,
      "build_date": "1990-01年",
      "_district": "天河",
      "_block_id": 15596,
      "_block_name": "大沙地"
    },
    "103509790": {
      "id": 103509790,
      "name": "下沙村",
      "lat": "23.110724",
      "lng": "113.456602",
      "prop_num": 4,
      "build_date": "",
      "_district": "天河",
      "_block_id": 15596,
      "_block_name": "大沙地"
    },
    "105018822": {
      "id": 105018822,
      "name": "后背山南路自建房",
      "lat": "23.111436433882233",
      "lng": "113.45250305553782",
      "prop_num": 2,
      "build_date": "",
      "_district": "天河",
      "_block_id": 15596,
      "_block_name": "大沙地"
    },
    "103508422": {
      "id": 103508422,
      "name": "港湾路东小区",
      "lat": "23.111305",
      "lng": "113.452601",
      "prop_num": 2,
      "build_date": "",
      "_district": "天河",
      "_block_id": 15596,
      "_block_name": "大沙地"
    },
    "100517532": {
      "id": 100517532,
      "name": "港湾东一街小区",
      "lat": "23.108785",
      "lng": "113.454788",
      "prop_num": 1,
      "build_date": "2000年",
      "_district": "天河",
      "_block_id": 15596,
      "_block_name": "大沙地"
    },
    "100453236": {
      "id": 100453236,
      "name": "三角楼",
      "lat": "23.112254",
      "lng": "113.457916",
      "prop_num": 2,
      "build_date": "2001年",
      "_district": "天河",
      "_block_id": 15596,
      "_block_name": "大沙地"
    },
    "100712340": {
      "id": 100712340,
      "name": "城门大街自建房",
      "lat": "23.113675431819537",
      "lng": "113.44677560714484",
      "prop_num": 5,
      "build_date": "2000年",
      "_district": "天河",
      "_block_id": 15596,
      "_block_name": "大沙地"
    },
    "103103522": {
      "id": 103103522,
      "name": "和贵大街小区",
      "lat": "23.114799",
      "lng": "113.445646",
      "prop_num": 5,
      "build_date": "2000年",
      "_district": "天河",
      "_block_id": 15596,
      "_block_name": "大沙地"
    },
    "102423779": {
      "id": 102423779,
      "name": "坑头新村南七巷小区",
      "lat": "23.113483",
      "lng": "113.449139",
      "prop_num": 5,
      "build_date": "1995年",
      "_district": "天河",
      "_block_id": 15596,
      "_block_name": "大沙地"
    },
    "102414919": {
      "id": 102414919,
      "name": "茅岗村环村大街71号小区",
      "lat": "23.113641",
      "lng": "113.447264",
      "prop_num": 5,
      "build_date": "2005年",
      "_district": "天河",
      "_block_id": 15596,
      "_block_name": "大沙地"
    },
    "102423772": {
      "id": 102423772,
      "name": "坑头二甲园新村自建房",
      "lat": "23.113370839288",
      "lng": "113.44913691754",
      "prop_num": 4,
      "build_date": "2000年",
      "_district": "天河",
      "_block_id": 15596,
      "_block_name": "大沙地"
    },
    "104800659": {
      "id": 104800659,
      "name": "和贵大街八巷16号自建房",
      "lat": "23.116644",
      "lng": "113.444063",
      "prop_num": 1,
      "build_date": "",
      "_district": "天河",
      "_block_id": 15596,
      "_block_name": "大沙地"
    },
    "100451701": {
      "id": 100451701,
      "name": "骏鸿苑",
      "lat": "23.113295",
      "lng": "113.463653",
      "prop_num": 1,
      "build_date": "1998-01年",
      "_district": "天河",
      "_block_id": 15596,
      "_block_name": "大沙地"
    },
    "100454843": {
      "id": 100454843,
      "name": "六运小区",
      "lat": "23.135986704392",
      "lng": "113.32933253235",
      "prop_num": 41,
      "build_date": "1993年",
      "_district": "天河",
      "_block_id": 2690,
      "_block_name": "珠江新城中"
    },
    "100449789": {
      "id": 100449789,
      "name": "鸿翔大厦",
      "lat": "23.147538",
      "lng": "113.347893",
      "prop_num": 38,
      "build_date": "2000-01年",
      "_district": "天河",
      "_block_id": 2690,
      "_block_name": "珠江新城中"
    },
    "100686529": {
      "id": 100686529,
      "name": "寺右公馆",
      "lat": "23.122313",
      "lng": "113.32347",
      "prop_num": 28,
      "build_date": "2018年",
      "_district": "天河",
      "_block_id": 2690,
      "_block_name": "珠江新城中"
    },
    "100444566": {
      "id": 100444566,
      "name": "保利香槟花园",
      "lat": "23.123111",
      "lng": "113.32394",
      "prop_num": 26,
      "build_date": "2004-12年",
      "_district": "天河",
      "_block_id": 2690,
      "_block_name": "珠江新城中"
    },
    "100447671": {
      "id": 100447671,
      "name": "东方之珠花园",
      "lat": "23.14753",
      "lng": "113.350914",
      "prop_num": 22,
      "build_date": "1999年",
      "_district": "天河",
      "_block_id": 2690,
      "_block_name": "珠江新城中"
    },
    "100447715": {
      "id": 100447715,
      "name": "东风广场",
      "lat": "23.138954",
      "lng": "113.317089",
      "prop_num": 21,
      "build_date": "2006-04年",
      "_district": "天河",
      "_block_id": 2690,
      "_block_name": "珠江新城中"
    },
    "100452783": {
      "id": 100452783,
      "name": "侨林苑",
      "lat": "23.149705542337077",
      "lng": "113.33589434897763",
      "prop_num": 20,
      "build_date": "2003-04年",
      "_district": "天河",
      "_block_id": 2690,
      "_block_name": "珠江新城中"
    },
    "100456604": {
      "id": 100456604,
      "name": "中怡城市花园",
      "lat": "23.148999",
      "lng": "113.33386",
      "prop_num": 20,
      "build_date": "2003-12年",
      "_district": "天河",
      "_block_id": 2690,
      "_block_name": "珠江新城中"
    },
    "100454596": {
      "id": 100454596,
      "name": "育蕾小区",
      "lat": "23.134509",
      "lng": "113.32907",
      "prop_num": 19,
      "build_date": "1993年",
      "_district": "天河",
      "_block_id": 2690,
      "_block_name": "珠江新城中"
    },
    "100444638": {
      "id": 100444638,
      "name": "保利中辰广场",
      "lat": "23.140375",
      "lng": "113.343296",
      "prop_num": 17,
      "build_date": "2012年",
      "_district": "天河",
      "_block_id": 2690,
      "_block_name": "珠江新城中"
    },
    "100512912": {
      "id": 100512912,
      "name": "珠江帝景苑",
      "lat": "23.109945",
      "lng": "113.33566",
      "prop_num": 16,
      "build_date": "2007-04年",
      "_district": "天河",
      "_block_id": 2690,
      "_block_name": "珠江新城中"
    },
    "100456549": {
      "id": 100456549,
      "name": "中铁盛德国际",
      "lat": "23.133202",
      "lng": "113.344166",
      "prop_num": 16,
      "build_date": "2014年",
      "_district": "天河",
      "_block_id": 2690,
      "_block_name": "珠江新城中"
    },
    "100451714": {
      "id": 100451714,
      "name": "梅花村小区",
      "lat": "23.133545",
      "lng": "113.311754",
      "prop_num": 15,
      "build_date": "1990年",
      "_district": "天河",
      "_block_id": 2690,
      "_block_name": "珠江新城中"
    },
    "100454488": {
      "id": 100454488,
      "name": "体育西小区",
      "lat": "23.133831606821275",
      "lng": "113.33328585099501",
      "prop_num": 15,
      "build_date": "1991年",
      "_district": "天河",
      "_block_id": 2690,
      "_block_name": "珠江新城中"
    },
    "100451791": {
      "id": 100451791,
      "name": "凯旋会花园",
      "lat": "23.120027",
      "lng": "113.31894",
      "prop_num": 14,
      "build_date": "2004年",
      "_district": "天河",
      "_block_id": 2690,
      "_block_name": "珠江新城中"
    },
    "100550826": {
      "id": 100550826,
      "name": "岗顶百脑汇",
      "lat": "23.139961",
      "lng": "113.345908",
      "prop_num": 14,
      "build_date": "2019年",
      "_district": "天河",
      "_block_id": 2690,
      "_block_name": "珠江新城中"
    },
    "100455581": {
      "id": 100455581,
      "name": "伟腾天逸名都",
      "lat": "23.145021",
      "lng": "113.346125",
      "prop_num": 14,
      "build_date": "2004年",
      "_district": "天河",
      "_block_id": 2690,
      "_block_name": "珠江新城中"
    },
    "100453465": {
      "id": 100453465,
      "name": "尚德大厦",
      "lat": "23.145383",
      "lng": "113.350845",
      "prop_num": 13,
      "build_date": "2008年",
      "_district": "天河",
      "_block_id": 2690,
      "_block_name": "珠江新城中"
    },
    "100454687": {
      "id": 100454687,
      "name": "天惠大厦",
      "lat": "23.145103",
      "lng": "113.349832",
      "prop_num": 12,
      "build_date": "2002年",
      "_district": "天河",
      "_block_id": 2690,
      "_block_name": "珠江新城中"
    },
    "100447301": {
      "id": 100447301,
      "name": "帝景苑",
      "lat": "23.146271",
      "lng": "113.343012",
      "prop_num": 12,
      "build_date": "2001年",
      "_district": "天河",
      "_block_id": 2690,
      "_block_name": "珠江新城中"
    },
    "100454886": {
      "id": 100454886,
      "name": "天誉花园",
      "lat": "23.152066",
      "lng": "113.332662",
      "prop_num": 11,
      "build_date": "1999年",
      "_district": "天河",
      "_block_id": 2690,
      "_block_name": "珠江新城中"
    },
    "100443297": {
      "id": 100443297,
      "name": "MBA国际公寓",
      "lat": "23.132495",
      "lng": "113.351437",
      "prop_num": 11,
      "build_date": "2006年",
      "_district": "天河",
      "_block_id": 2690,
      "_block_name": "珠江新城中"
    },
    "100454513": {
      "id": 100454513,
      "name": "天诚广场",
      "lat": "23.148458892758345",
      "lng": "113.34741043185917",
      "prop_num": 11,
      "build_date": "1999年",
      "_district": "天河",
      "_block_id": 2690,
      "_block_name": "珠江新城中"
    },
    "100450459": {
      "id": 100450459,
      "name": "广利路小区",
      "lat": "23.136082",
      "lng": "113.325321",
      "prop_num": 9,
      "build_date": "1996-01年",
      "_district": "天河",
      "_block_id": 2690,
      "_block_name": "珠江新城中"
    },
    "100454789": {
      "id": 100454789,
      "name": "天晟明苑",
      "lat": "23.134379",
      "lng": "113.344947",
      "prop_num": 8,
      "build_date": "2003年",
      "_district": "天河",
      "_block_id": 2690,
      "_block_name": "珠江新城中"
    },
    "100456521": {
      "id": 100456521,
      "name": "中山一路小区",
      "lat": "23.133868",
      "lng": "113.315672",
      "prop_num": 8,
      "build_date": "1993年",
      "_district": "天河",
      "_block_id": 2690,
      "_block_name": "珠江新城中"
    },
    "100454894": {
      "id": 100454894,
      "name": "远洋明珠",
      "lat": "23.12382",
      "lng": "113.322937",
      "prop_num": 7,
      "build_date": "2000-12年",
      "_district": "天河",
      "_block_id": 2690,
      "_block_name": "珠江新城中"
    },
    "100580738": {
      "id": 100580738,
      "name": "高德公馆",
      "lat": "23.125151",
      "lng": "113.334933",
      "prop_num": 7,
      "build_date": "2008-06年",
      "_district": "天河",
      "_block_id": 2690,
      "_block_name": "珠江新城中"
    },
    "100450512": {
      "id": 100450512,
      "name": "广信晖景大厦",
      "lat": "23.122139",
      "lng": "113.321021",
      "prop_num": 7,
      "build_date": "1993年",
      "_district": "天河",
      "_block_id": 2690,
      "_block_name": "珠江新城中"
    },
    "100454595": {
      "id": 100454595,
      "name": "天河花园大厦",
      "lat": "23.137095",
      "lng": "113.338863",
      "prop_num": 7,
      "build_date": "2000-01年",
      "_district": "天河",
      "_block_id": 2690,
      "_block_name": "珠江新城中"
    },
    "100445367": {
      "id": 100445367,
      "name": "滨江怡苑芭堤水岸",
      "lat": "23.108855",
      "lng": "113.319728",
      "prop_num": 7,
      "build_date": "2005年",
      "_district": "天河",
      "_block_id": 2690,
      "_block_name": "珠江新城中"
    },
    "100447684": {
      "id": 100447684,
      "name": "东风东路小区",
      "lat": "23.13692217229847",
      "lng": "113.30462116447148",
      "prop_num": 6,
      "build_date": "1990年",
      "_district": "天河",
      "_block_id": 2690,
      "_block_name": "珠江新城中"
    },
    "100453774": {
      "id": 100453774,
      "name": "石牌西路武警大院",
      "lat": "23.138978",
      "lng": "113.346306",
      "prop_num": 6,
      "build_date": "1998年",
      "_district": "天河",
      "_block_id": 2690,
      "_block_name": "珠江新城中"
    },
    "100447602": {
      "id": 100447602,
      "name": "东方广场",
      "lat": "23.140182",
      "lng": "113.301121",
      "prop_num": 6,
      "build_date": "1998-07年",
      "_district": "天河",
      "_block_id": 2690,
      "_block_name": "珠江新城中"
    },
    "102018872": {
      "id": 102018872,
      "name": "冼村回迁房",
      "lat": "23.129116",
      "lng": "113.338515",
      "prop_num": 6,
      "build_date": "2018年",
      "_district": "天河",
      "_block_id": 2690,
      "_block_name": "珠江新城中"
    },
    "100453480": {
      "id": 100453480,
      "name": "尚东君御雅苑",
      "lat": "23.126184",
      "lng": "113.335322",
      "prop_num": 6,
      "build_date": "2013-03年",
      "_district": "天河",
      "_block_id": 2690,
      "_block_name": "珠江新城中"
    },
    "100444645": {
      "id": 100444645,
      "name": "保利中宇广场",
      "lat": "23.146626",
      "lng": "113.348507",
      "prop_num": 5,
      "build_date": "2009-06年",
      "_district": "天河",
      "_block_id": 2690,
      "_block_name": "珠江新城中"
    },
    "100444586": {
      "id": 100444586,
      "name": "保利心语花园",
      "lat": "23.127548343715",
      "lng": "113.33660735192",
      "prop_num": 5,
      "build_date": "2008年",
      "_district": "天河",
      "_block_id": 2690,
      "_block_name": "珠江新城中"
    },
    "100456851": {
      "id": 100456851,
      "name": "珠光新城御景(二期)",
      "lat": "23.123611961842",
      "lng": "113.3561649384",
      "prop_num": 5,
      "build_date": "2020年",
      "_district": "天河",
      "_block_id": 2690,
      "_block_name": "珠江新城中"
    },
    "100574511": {
      "id": 100574511,
      "name": "中山大学宿舍",
      "lat": "23.101001",
      "lng": "113.300142",
      "prop_num": 5,
      "build_date": "1996年",
      "_district": "天河",
      "_block_id": 2690,
      "_block_name": "珠江新城中"
    },
    "100450570": {
      "id": 100450570,
      "name": "汇峰苑",
      "lat": "23.126023",
      "lng": "113.337044",
      "prop_num": 5,
      "build_date": "2008年",
      "_district": "天河",
      "_block_id": 2690,
      "_block_name": "珠江新城中"
    },
    "100454660": {
      "id": 100454660,
      "name": "珠江太阳城广场",
      "lat": "23.130556925666767",
      "lng": "113.35137826841324",
      "prop_num": 5,
      "build_date": "2006年",
      "_district": "天河",
      "_block_id": 2690,
      "_block_name": "珠江新城中"
    },
    "100449509": {
      "id": 100449509,
      "name": "福今东路大院",
      "lat": "23.135225295673482",
      "lng": "113.31094096608906",
      "prop_num": 5,
      "build_date": "1998年",
      "_district": "天河",
      "_block_id": 2690,
      "_block_name": "珠江新城中"
    },
    "103053165": {
      "id": 103053165,
      "name": "暨南大学南湖苑",
      "lat": "23.13472",
      "lng": "113.357746",
      "prop_num": 5,
      "build_date": "1998年",
      "_district": "天河",
      "_block_id": 2690,
      "_block_name": "珠江新城中"
    },
    "100447400": {
      "id": 100447400,
      "name": "叠彩园",
      "lat": "23.092174",
      "lng": "113.317366",
      "prop_num": 5,
      "build_date": "2002年",
      "_district": "天河",
      "_block_id": 2690,
      "_block_name": "珠江新城中"
    },
    "100453492": {
      "id": 100453492,
      "name": "尚河居",
      "lat": "23.136743",
      "lng": "113.325884",
      "prop_num": 5,
      "build_date": "2007-01年",
      "_district": "天河",
      "_block_id": 2690,
      "_block_name": "珠江新城中"
    },
    "102286871": {
      "id": 102286871,
      "name": "育兰小区",
      "lat": "23.134461004591035",
      "lng": "113.32678378134993",
      "prop_num": 4,
      "build_date": "1996年",
      "_district": "天河",
      "_block_id": 2690,
      "_block_name": "珠江新城中"
    },
    "100456936": {
      "id": 100456936,
      "name": "珠江都荟",
      "lat": "23.123981",
      "lng": "113.323793",
      "prop_num": 4,
      "build_date": "2011-06年",
      "_district": "天河",
      "_block_id": 2690,
      "_block_name": "珠江新城中"
    },
    "100447696": {
      "id": 100447696,
      "name": "东风东路703号大院",
      "lat": "23.137819957452297",
      "lng": "113.30243589177955",
      "prop_num": 4,
      "build_date": "1990年",
      "_district": "天河",
      "_block_id": 2690,
      "_block_name": "珠江新城中"
    },
    "100451778": {
      "id": 100451778,
      "name": "凯德天河新作",
      "lat": "23.141815",
      "lng": "113.339015",
      "prop_num": 4,
      "build_date": "2006年",
      "_district": "天河",
      "_block_id": 2690,
      "_block_name": "珠江新城中"
    },
    "105044485": {
      "id": 105044485,
      "name": "CCB建融家园(蓝天大厦)",
      "lat": "23.140339485187",
      "lng": "113.32083856964",
      "prop_num": 4,
      "build_date": "",
      "_district": "天河",
      "_block_id": 2690,
      "_block_name": "珠江新城中"
    },
    "100456846": {
      "id": 100456846,
      "name": "珠光新城御景(一期)",
      "lat": "23.121829",
      "lng": "113.353306",
      "prop_num": 4,
      "build_date": "2009年",
      "_district": "天河",
      "_block_id": 2690,
      "_block_name": "珠江新城中"
    },
    "100450702": {
      "id": 100450702,
      "name": "荟雅苑",
      "lat": "23.148239",
      "lng": "113.33335",
      "prop_num": 4,
      "build_date": "1997年",
      "_district": "天河",
      "_block_id": 2690,
      "_block_name": "珠江新城中"
    },
    "100451684": {
      "id": 100451684,
      "name": "峻林",
      "lat": "23.152611",
      "lng": "113.334459",
      "prop_num": 4,
      "build_date": "2017年",
      "_district": "天河",
      "_block_id": 2690,
      "_block_name": "珠江新城中"
    },
    "105110169": {
      "id": 105110169,
      "name": "元寓海珠湿地数字生态园",
      "lat": "23.07312536601696",
      "lng": "113.34315924279674",
      "prop_num": 4,
      "build_date": "",
      "_district": "天河",
      "_block_id": 2690,
      "_block_name": "珠江新城中"
    },
    "100457660": {
      "id": 100457660,
      "name": "纵横公寓",
      "lat": "23.101443",
      "lng": "113.337217",
      "prop_num": 4,
      "build_date": "2005年",
      "_district": "天河",
      "_block_id": 2690,
      "_block_name": "珠江新城中"
    },
    "100448389": {
      "id": 100448389,
      "name": "东园新村(越秀)",
      "lat": "23.133185792395466",
      "lng": "113.30652231855481",
      "prop_num": 4,
      "build_date": "1980年",
      "_district": "天河",
      "_block_id": 2690,
      "_block_name": "珠江新城中"
    },